{"type":"FeatureCollection","features":[{"type":"Feature","id":1,"geometry":null,"properties":{"OBJECTID":1,"LAT":37.697350299999997,"LONG":-97.340992,"Name":"PROFESSIONAL PHARMACY","Address":"744 N WACO","City":"WICHITA","State":"KS","Zip":67203,"formated_phone":"316-263-5218","Status":"open","Icon":"small_green","Type":"Pharmacy"}},{"type":"Feature","id":2,"geometry":null,"properties":{"OBJECTID":2,"LAT":39.359530730000003,"LONG":-101.7133,"Name":"GOODLAND MED ARTS PHCY","Address":"202 WILLOW RD","City":"GOODLAND","State":"KS","Zip":677351852,"formated_phone":"785-890-5111","Status":"open","Icon":"small_green","Type":"Pharmacy"}},{"type":"Feature","id":3,"geometry":null,"properties":{"OBJECTID":3,"LAT":39.000654760000003,"LONG":-95.6875,"Name":"WALGREENS #4782","Address":"3696 SW TOPEKA BLVD","City":"TOPEKA","State":"KS","Zip":66611,"formated_phone":"785-266-7181","Status":"open","Icon":"small_green","Type":"Pharmacy"}},{"type":"Feature","id":4,"geometry":null,"properties":{"OBJECTID":4,"LAT":39.047199999999997,"LONG":-95.6815,"Name":"WALGREENS #3069","Address":"1001 SW TOPEKA BLVD","City":"TOPEKA","State":"KS","Zip":66612,"formated_phone":"785-354-1747","Status":"open","Icon":"small_green","Type":"Pharmacy"}},{"type":"Feature","id":5,"geometry":null,"properties":{"OBJECTID":5,"LAT":38.957000000000001,"LONG":-94.649000000000001,"Name":"CVS PHARMACY","Address":"9501 Nall Ave","City":"OVERLAND PARK","State":"KS","Zip":66207,"formated_phone":"913-648-1210","Status":"open","Icon":"small_green","Type":"Pharmacy"}},{"type":"Feature","id":6,"geometry":null,"properties":{"OBJECTID":6,"LAT":38.835133599999999,"LONG":-97.623189699999998,"Name":"GIBSON PHARMACY","Address":"321 S BROADWAY","City":"SALINA","State":"KS","Zip":674013899,"formated_phone":"785-825-0524","Status":"open","Icon":"small_green","Type":"Pharmacy"}},{"type":"Feature","id":7,"geometry":null,"properties":{"OBJECTID":7,"LAT":39.128500000000003,"LONG":-94.640699999999995,"Name":"DeGoler's Prescription Pharmacy","Address":"21 N 12th St","City":"KANSAS CITY","State":"KS","Zip":661025172,"formated_phone":"913-342-4077","Status":"open","Icon":"small_green","Type":"Pharmacy"}},{"type":"Feature","id":8,"geometry":null,"properties":{"OBJECTID":8,"LAT":37.011977549999997,"LONG":-94.736199999999997,"Name":"WOLKAR DRUG INC","Address":"2303 MILITARY AVE","City":"BAXTER SPRINGS","State":"KS","Zip":667132324,"formated_phone":"620-856-5555","Status":"open","Icon":"small_green","Type":"Pharmacy"}},{"type":"Feature","id":9,"geometry":null,"properties":{"OBJECTID":9,"LAT":39.028776190000002,"LONG":-95.743799999999993,"Name":"WALGREENS #4557","Address":"2121 SW FAIRLAWN RD","City":"TOPEKA","State":"KS","Zip":66614,"formated_phone":"785-273-0216","Status":"open","Icon":"small_green","Type":"Pharmacy"}},{"type":"Feature","id":10,"geometry":null,"properties":{"OBJECTID":10,"LAT":37.032800000000002,"LONG":-95.623900000000006,"Name":"THE PRESCRIPTION SHOP","Address":"601 W 11TH ST","City":"COFFEYVILLE","State":"KS","Zip":673375025,"formated_phone":"620-251-1620","Status":"open","Icon":"small_green","Type":"Pharmacy"}},{"type":"Feature","id":11,"geometry":null,"properties":{"OBJECTID":11,"LAT":37.722799999999999,"LONG":-97.338171790000004,"Name":"SALYER PHARMACY","Address":"102 E 21ST ST","City":"WICHITA","State":"KS","Zip":67214,"formated_phone":"316-838-4249","Status":"open","Icon":"small_green","Type":"Pharmacy"}},{"type":"Feature","id":12,"geometry":null,"properties":{"OBJECTID":12,"LAT":37.061100000000003,"LONG":-97.039199999999994,"Name":"TAYLOR DRUG","Address":"201 S SUMMIT ST","City":"ARKANSAS CITY","State":"KS","Zip":670052895,"formated_phone":"620-442-3500","Status":"open","Icon":"small_green","Type":"Pharmacy"}},{"type":"Feature","id":13,"geometry":null,"properties":{"OBJECTID":13,"LAT":39.057499999999997,"LONG":-94.821299999999994,"Name":"DeGoler Pharmacy","Address":"540 S 4TH","City":"EDWARDSVILLE","State":"KS","Zip":66111,"formated_phone":"913-441-3678","Status":"open","Icon":"small_green","Type":"Pharmacy"}},{"type":"Feature","id":14,"geometry":null,"properties":{"OBJECTID":14,"LAT":37.244599999999998,"LONG":-96.937899999999999,"Name":"WINFIELD PHARMACY INC","Address":"1708 E 9TH AVE","City":"WINFIELD","State":"KS","Zip":671560756,"formated_phone":"620-221-0450","Status":"open","Icon":"small_green","Type":"Pharmacy"}},{"type":"Feature","id":15,"geometry":null,"properties":{"OBJECTID":15,"LAT":37.824470400000003,"LONG":-97.373204299999998,"Name":"VALLEY DRUG INC","Address":"801 S MERIDIAN","City":"VALLEY CENTER","State":"KS","Zip":67147,"formated_phone":"316-755-0191","Status":"open","Icon":"small_green","Type":"Pharmacy"}},{"type":"Feature","id":16,"geometry":null,"properties":{"OBJECTID":16,"LAT":37.025636599999999,"LONG":-94.735140400000006,"Name":"Baxter Drug #15798, Powered by Walgreens","Address":"1000 MILITARY","City":"BAXTER SPRINGS","State":"KS","Zip":66713,"formated_phone":"620-856-5858","Status":"open","Icon":"small_green","Type":"Pharmacy"}},{"type":"Feature","id":17,"geometry":null,"properties":{"OBJECTID":17,"LAT":37.6935,"LONG":-97.342100000000002,"Name":"GESSLER WESTLINK","Address":"8903 W CENTRAL AVE","City":"WICHITA","State":"KS","Zip":672123896,"formated_phone":"316-722-4281","Status":"open","Icon":"small_green","Type":"Pharmacy"}},{"type":"Feature","id":18,"geometry":null,"properties":{"OBJECTID":18,"LAT":39.1952,"LONG":-96.578299999999999,"Name":"DUNNES PHARMACY","Address":"2429 CLAFLIN RD","City":"MANHATTAN","State":"KS","Zip":665022785,"formated_phone":"785-539-2345","Status":"open","Icon":"small_green","Type":"Pharmacy"}},{"type":"Feature","id":19,"geometry":null,"properties":{"OBJECTID":19,"LAT":39.026830480000001,"LONG":-94.693252400000006,"Name":"GEORGETOWN PHARMACY","Address":"5605 MERRIAM DR","City":"MERRIAM","State":"KS","Zip":66203,"formated_phone":"913-362-0313","Status":"open","Icon":"small_green","Type":"Pharmacy"}},{"type":"Feature","id":20,"geometry":null,"properties":{"OBJECTID":20,"LAT":37.169699999999999,"LONG":-94.842712239999997,"Name":"EVANS DRUG INC","Address":"116 W PINE ST","City":"COLUMBUS","State":"KS","Zip":66725,"formated_phone":"620-429-3322","Status":"open","Icon":"small_green","Type":"Pharmacy"}},{"type":"Feature","id":21,"geometry":null,"properties":{"OBJECTID":21,"LAT":37.036900000000003,"LONG":-95.086121739999996,"Name":"RIGGS DRUGS STORE","Address":"308 MAPLE ST","City":"CHETOPA","State":"KS","Zip":67336,"formated_phone":"620-236-7272","Status":"open","Icon":"small_green","Type":"Pharmacy"}},{"type":"Feature","id":22,"geometry":null,"properties":{"OBJECTID":22,"LAT":38.671695,"LONG":-96.943849999999998,"Name":"Kays Pharmacy","Address":"2 West Main","City":"Herington","State":"KS","Zip":67449,"formated_phone":"785-258-3703","Status":"open","Icon":"small_green","Type":"Pharmacy"}},{"type":"Feature","id":23,"geometry":null,"properties":{"OBJECTID":23,"LAT":38.810702900000003,"LONG":-94.925854000000001,"Name":"GARDNER PHARMACY","Address":"131 E MAIN","City":"GARDNER","State":"KS","Zip":66030,"formated_phone":"913-856-8106","Status":"open","Icon":"small_green","Type":"Pharmacy"}},{"type":"Feature","id":24,"geometry":null,"properties":{"OBJECTID":24,"LAT":37.393799999999999,"LONG":-94.696799999999996,"Name":"ARMA DRUG","Address":"504 E WASHINGTON","City":"ARMA","State":"KS","Zip":667129801,"formated_phone":"620-347-8311","Status":"open","Icon":"small_green","Type":"Pharmacy"}},{"type":"Feature","id":25,"geometry":null,"properties":{"OBJECTID":25,"LAT":37.686100000000003,"LONG":-97.326400000000007,"Name":"GESSLER EAST","Address":"4817 E Douglas Ave # 300","City":"WICHITA","State":"KS","Zip":67218,"formated_phone":"316-684-0118","Status":"open","Icon":"small_green","Type":"Pharmacy"}},{"type":"Feature","id":26,"geometry":null,"properties":{"OBJECTID":26,"LAT":38.9176334,"LONG":-97.215946799999998,"Name":"AuBurn Pharmacy","Address":"304 N BROADWAY","City":"ABILENE","State":"KS","Zip":674102694,"formated_phone":"785-263-4330","Status":"open","Icon":"small_green","Type":"Pharmacy"}},{"type":"Feature","id":27,"geometry":null,"properties":{"OBJECTID":27,"LAT":38.935582699999998,"LONG":-97.214664999999997,"Name":"AuBurn Pharmacy","Address":"1812 N BUCKEYE","City":"ABILENE","State":"KS","Zip":67410,"formated_phone":"785-263-3770","Status":"open","Icon":"small_green","Type":"Pharmacy"}},{"type":"Feature","id":28,"geometry":null,"properties":{"OBJECTID":28,"LAT":38.917099999999998,"LONG":-97.213940820000005,"Name":"PATTERSON HEALTH CARE PHARMACY","Address":"105 NW THIRD ST","City":"ABILENE","State":"KS","Zip":67410,"formated_phone":"785-263-2229","Status":"open","Icon":"small_green","Type":"Pharmacy"}},{"type":"Feature","id":29,"geometry":null,"properties":{"OBJECTID":29,"LAT":38.907600000000002,"LONG":-97.216499999999996,"Name":"TRAPP PHARMACY","Address":"204 N CEDAR ST","City":"ABILENE","State":"KS","Zip":674102651,"formated_phone":"785-263-4550","Status":"open","Icon":"small_green","Type":"Pharmacy"}},{"type":"Feature","id":30,"geometry":null,"properties":{"OBJECTID":30,"LAT":37.152000000000001,"LONG":-98.031526529999994,"Name":"IRWIN-POTTER DRUG-MEDICAL-LAB","Address":"202 W MAIN ST","City":"ANTHONY","State":"KS","Zip":670030107,"formated_phone":"620-842-5119","Status":"open","Icon":"small_green","Type":"Pharmacy"}},{"type":"Feature","id":31,"geometry":null,"properties":{"OBJECTID":31,"LAT":37.189397960000001,"LONG":-99.766000000000005,"Name":"D AND B PHARMACY INC","Address":"719 MAIN ST","City":"ASHLAND","State":"KS","Zip":67831,"formated_phone":"316-635-2322","Status":"open","Icon":"small_green","Type":"Pharmacy"}},{"type":"Feature","id":32,"geometry":null,"properties":{"OBJECTID":32,"LAT":39.80631692,"LONG":-101.0418724,"Name":"CURRIER DRUG","Address":"416 STATE ST","City":"ATWOOD","State":"KS","Zip":677301929,"formated_phone":"785-626-3214","Status":"open","Icon":"small_green","Type":"Pharmacy"}},{"type":"Feature","id":33,"geometry":null,"properties":{"OBJECTID":33,"LAT":37.67630612,"LONG":-96.979100000000003,"Name":"COOPER DRUG STORE","Address":"509 STATE ST","City":"AUGUSTA","State":"KS","Zip":670101187,"formated_phone":"316-775-2289","Status":"open","Icon":"small_green","Type":"Pharmacy"}},{"type":"Feature","id":34,"geometry":null,"properties":{"OBJECTID":34,"LAT":38.782087760000003,"LONG":-95.188900000000004,"Name":"ROBERTS PBA DRUG STORE","Address":"112 N 8TH STREET","City":"BALDWIN CITY","State":"KS","Zip":66006,"formated_phone":"785-594-6867","Status":"open","Icon":"small_green","Type":"Pharmacy"}},{"type":"Feature","id":35,"geometry":null,"properties":{"OBJECTID":35,"LAT":39.776899999999998,"LONG":-97.894999999999996,"Name":"ARBUTHNOT DRUG COMPANY","Address":"1806 Main St","City":"BELLEVILLE","State":"KS","Zip":669352206,"formated_phone":"785-527-2146","Status":"open","Icon":"small_green","Type":"Pharmacy"}},{"type":"Feature","id":36,"geometry":null,"properties":{"OBJECTID":36,"LAT":39.498199999999997,"LONG":-98.308300000000003,"Name":"S AND S DRUGS","Address":"110 S MILL ST","City":"BELOIT","State":"KS","Zip":674203237,"formated_phone":"785-738-2285","Status":"open","Icon":"small_green","Type":"Pharmacy"}},{"type":"Feature","id":37,"geometry":null,"properties":{"OBJECTID":37,"LAT":39.056713340000002,"LONG":-94.884178289999994,"Name":"DeGoler Pharmacy","Address":"202 Oak St","City":"Bonner Springs","State":"KS","Zip":660121028,"formated_phone":"913-422-3066","Status":"open","Icon":"small_green","Type":"Pharmacy"}},{"type":"Feature","id":38,"geometry":null,"properties":{"OBJECTID":38,"LAT":37.676579500000003,"LONG":-95.472036500000002,"Name":"Ashley Clinic Pharmacy","Address":"505 S PLUMMER","City":"CHANUTE","State":"KS","Zip":667201950,"formated_phone":"620-431-2510","Status":"open","Icon":"small_green","Type":"Pharmacy"}},{"type":"Feature","id":39,"geometry":null,"properties":{"OBJECTID":39,"LAT":37.104399999999998,"LONG":-95.450760000000002,"Name":"Cherryvale Pharmacy","Address":"203 W MAIN STE A","City":"CHERRYVALE","State":"KS","Zip":673351332,"formated_phone":"316-336-2144","Status":"open","Icon":"small_green","Type":"Pharmacy"}},{"type":"Feature","id":40,"geometry":null,"properties":{"OBJECTID":40,"LAT":39.376100000000001,"LONG":-97.127873469999997,"Name":"PATTERSON HEALTHMART PHARMACY","Address":"422 LINCOLN AVE","City":"CLAY CENTER","State":"KS","Zip":67432,"formated_phone":"785-632-3115","Status":"open","Icon":"small_green","Type":"Pharmacy"}},{"type":"Feature","id":41,"geometry":null,"properties":{"OBJECTID":41,"LAT":37.036000000000001,"LONG":-95.633925000000005,"Name":"RAUCH MED ECON PHARMACY","Address":"1205 W 8TH ST","City":"COFFEYVILLE","State":"KS","Zip":67337,"formated_phone":"620-251-3533","Status":"open","Icon":"small_green","Type":"Pharmacy"}},{"type":"Feature","id":42,"geometry":null,"properties":{"OBJECTID":42,"LAT":39.397653300000002,"LONG":-101.0458493,"Name":"PALACE DRUG STORE","Address":"460 N FRANKLIN","City":"COLBY","State":"KS","Zip":677012395,"formated_phone":"785-460-7507","Status":"open","Icon":"small_green","Type":"Pharmacy"}},{"type":"Feature","id":43,"geometry":null,"properties":{"OBJECTID":43,"LAT":37.269969400000001,"LONG":-99.3200863,"Name":"MAIN STREET PHARMACY","Address":"113 E MAIN","City":"COLDWATER","State":"KS","Zip":67029,"formated_phone":"620-582-2134","Status":"open","Icon":"small_green","Type":"Pharmacy"}},{"type":"Feature","id":44,"geometry":null,"properties":{"OBJECTID":44,"LAT":39.562225699999999,"LONG":-97.657414000000003,"Name":"FAMILY HEALTH MART PHARMACY","Address":"1526 Lincoln","City":"CONCORDIA","State":"KS","Zip":66901,"formated_phone":"785-243-1212","Status":"open","Icon":"small_green","Type":"Pharmacy"}},{"type":"Feature","id":45,"geometry":null,"properties":{"OBJECTID":45,"LAT":38.636099999999999,"LONG":-96.671544900000001,"Name":"ALDRICH APOTHECARY","Address":"115 W MAIN ST","City":"COUNCIL GROVE","State":"KS","Zip":668461702,"formated_phone":"620-767-6731","Status":"open","Icon":"small_green","Type":"Pharmacy"}},{"type":"Feature","id":46,"geometry":null,"properties":{"OBJECTID":46,"LAT":37.819015999999998,"LONG":-96.848401199999998,"Name":"EL DORADO TRUECARE PHCY","Address":"205 N VINE","City":"EL DORADO","State":"KS","Zip":67042,"formated_phone":"316-321-5330","Status":"open","Icon":"small_green","Type":"Pharmacy"}},{"type":"Feature","id":47,"geometry":null,"properties":{"OBJECTID":47,"LAT":38.7297528,"LONG":-98.230665599999995,"Name":"F & M DRUG LLC","Address":"209 N DOUGLAS","City":"ELLSWORTH","State":"KS","Zip":67439,"formated_phone":"785-472-3131","Status":"open","Icon":"small_green","Type":"Pharmacy"}},{"type":"Feature","id":48,"geometry":null,"properties":{"OBJECTID":48,"LAT":38.7376,"LONG":-98.225200000000001,"Name":"SEITZ DRUG COMPANY INC","Address":"206 N DOUGLAS AVE","City":"ELLSWORTH","State":"KS","Zip":674393216,"formated_phone":"785-472-3212","Status":"open","Icon":"small_green","Type":"Pharmacy"}},{"type":"Feature","id":49,"geometry":null,"properties":{"OBJECTID":49,"LAT":38.405114570000002,"LONG":-96.180391150000005,"Name":"GRAVES DRUG STORE EMPORIA INC","Address":"609 COMMERCIAL ST","City":"EMPORIA","State":"KS","Zip":668012974,"formated_phone":"620-343-2323","Status":"open","Icon":"small_green","Type":"Pharmacy"}},{"type":"Feature","id":50,"geometry":null,"properties":{"OBJECTID":50,"LAT":38.927900000000001,"LONG":-95.097899999999996,"Name":"BYRNES PHARMACY INC","Address":"600 E 20th St","City":"EUDORA","State":"KS","Zip":66025,"formated_phone":"785-542-2533","Status":"open","Icon":"small_green","Type":"Pharmacy"}},{"type":"Feature","id":51,"geometry":null,"properties":{"OBJECTID":51,"LAT":37.8064532,"LONG":-94.710383899999997,"Name":"MERCY HEALTH CTR PHCY","Address":"401 WOODLAND HILLS BLVD","City":"FT SCOTT","State":"KS","Zip":66701,"formated_phone":"620-223-7075","Status":"open","Icon":"small_green","Type":"Pharmacy"}},{"type":"Feature","id":52,"geometry":null,"properties":{"OBJECTID":52,"LAT":37.972817210000002,"LONG":-100.8723,"Name":"PLAZA PHARMACY INC","Address":"911 N MAIN STREET","City":"GARDEN CITY","State":"KS","Zip":67846,"formated_phone":"620-276-8251","Status":"open","Icon":"small_green","Type":"Pharmacy"}},{"type":"Feature","id":53,"geometry":null,"properties":{"OBJECTID":53,"LAT":37.513808400000002,"LONG":-94.848294899999999,"Name":"MATHIS DRUG STORE INC","Address":"400 WEST ST JOHN","City":"GIRARD","State":"KS","Zip":667430097,"formated_phone":"620-724-4313","Status":"open","Icon":"small_green","Type":"Pharmacy"}},{"type":"Feature","id":54,"geometry":null,"properties":{"OBJECTID":54,"LAT":38.1586,"LONG":-96.964299999999994,"Name":"PIERSON HANOVER PROFESSIONAL PHARMACY","Address":"103 NORTH ST","City":"HANOVER","State":"KS","Zip":669459998,"formated_phone":"785-337-2241","Status":"open","Icon":"small_green","Type":"Pharmacy"}},{"type":"Feature","id":55,"geometry":null,"properties":{"OBJECTID":55,"LAT":38.34793827,"LONG":-97.205892829999996,"Name":"GREENHAW PHARMACY INC","Address":"508 S ASH ST STE P","City":"HILLSBORO","State":"KS","Zip":67063,"formated_phone":"620-947-3784","Status":"open","Icon":"small_green","Type":"Pharmacy"}},{"type":"Feature","id":56,"geometry":null,"properties":{"OBJECTID":56,"LAT":39.479399999999998,"LONG":-95.753699999999995,"Name":"MEDICAL PHARMACY PA","Address":"1100 COLUMBINE DR","City":"HOLTON","State":"KS","Zip":66436,"formated_phone":"785-364-2114","Status":"open","Icon":"small_green","Type":"Pharmacy"}},{"type":"Feature","id":57,"geometry":null,"properties":{"OBJECTID":57,"LAT":37.472101799999997,"LONG":-96.263592799999998,"Name":"BATSONS DRUG STORE","Address":"102 N WABASH","City":"HOWARD","State":"KS","Zip":67349,"formated_phone":"620-374-2265","Status":"open","Icon":"small_green","Type":"Pharmacy"}},{"type":"Feature","id":58,"geometry":null,"properties":{"OBJECTID":58,"LAT":39.353900000000003,"LONG":-100.4418,"Name":"MAHANNA PHARMACY INC","Address":"833 MAIN ST","City":"HOXIE","State":"KS","Zip":677409735,"formated_phone":"785-675-3461","Status":"open","Icon":"small_green","Type":"Pharmacy"}},{"type":"Feature","id":59,"geometry":null,"properties":{"OBJECTID":59,"LAT":37.176914289999999,"LONG":-101.34829999999999,"Name":"BLOODHART DRUG","Address":"621 S MAIN ST","City":"HUGOTON","State":"KS","Zip":67951,"formated_phone":"620-544-4369","Status":"open","Icon":"small_green","Type":"Pharmacy"}},{"type":"Feature","id":60,"geometry":null,"properties":{"OBJECTID":60,"LAT":39.0244541,"LONG":-96.849274600000001,"Name":"KOLLING PHARMACY","Address":"120 N EISENHOWER","City":"JUNCTION CITY","State":"KS","Zip":66441,"formated_phone":"785-762-5535","Status":"open","Icon":"small_green","Type":"Pharmacy"}},{"type":"Feature","id":61,"geometry":null,"properties":{"OBJECTID":61,"LAT":39.102800000000002,"LONG":-94.627300000000005,"Name":"HASSIG DRUGS INC","Address":"1001 CENTRAL AVE","City":"KANSAS CITY","State":"KS","Zip":661025396,"formated_phone":"913-371-0447","Status":"open","Icon":"small_green","Type":"Pharmacy"}},{"type":"Feature","id":62,"geometry":null,"properties":{"OBJECTID":62,"LAT":39.113783669999997,"LONG":-94.626599999999996,"Name":"ABRAMS PHARMACY INC","Address":"819 N 7TH ST","City":"KANSAS CITY","State":"KS","Zip":661013089,"formated_phone":"913-342-8000","Status":"open","Icon":"small_green","Type":"Pharmacy"}},{"type":"Feature","id":63,"geometry":null,"properties":{"OBJECTID":63,"LAT":37.8964,"LONG":-98.171199999999999,"Name":"KINGMAN DRUG INC","Address":"211 N MAIN ST","City":"KINGMAN","State":"KS","Zip":670681396,"formated_phone":"620-532-5113","Status":"open","Icon":"small_green","Type":"Pharmacy"}},{"type":"Feature","id":64,"geometry":null,"properties":{"OBJECTID":64,"LAT":38.072600000000001,"LONG":-99.247900000000001,"Name":"KINSLEY DRUG","Address":"207 E 6TH ST","City":"KINSLEY","State":"KS","Zip":675471109,"formated_phone":"620-659-2481","Status":"open","Icon":"small_green","Type":"Pharmacy"}},{"type":"Feature","id":65,"geometry":null,"properties":{"OBJECTID":65,"LAT":38.949100000000001,"LONG":-95.248199999999997,"Name":"MEDICAL ARTS PHCY","Address":"346 MAINE ST","City":"LAWRENCE","State":"KS","Zip":660441394,"formated_phone":"785-843-4160","Status":"open","Icon":"small_green","Type":"Pharmacy"}},{"type":"Feature","id":66,"geometry":null,"properties":{"OBJECTID":66,"LAT":38.415661999999998,"LONG":-95.857905799999997,"Name":"ALLEGRE REXALL DRUGS","Address":"6 W BROADWAY","City":"LEBO","State":"KS","Zip":668569998,"formated_phone":"620-256-6122","Status":"open","Icon":"small_green","Type":"Pharmacy"}},{"type":"Feature","id":67,"geometry":null,"properties":{"OBJECTID":67,"LAT":37.049734600000001,"LONG":-100.92229810000001,"Name":"ELKAN DRUG","Address":"1033 N KANSAS","City":"LIBERAL","State":"KS","Zip":67901,"formated_phone":"620-624-4065","Status":"open","Icon":"small_green","Type":"Pharmacy"}},{"type":"Feature","id":68,"geometry":null,"properties":{"OBJECTID":68,"LAT":39.040399999999998,"LONG":-98.149573470000007,"Name":"LINCOLN COUNTY PHARMACY","Address":"204 W LINCOLN AVE","City":"LINCOLN","State":"KS","Zip":674551920,"formated_phone":"785-524-4649","Status":"open","Icon":"small_green","Type":"Pharmacy"}},{"type":"Feature","id":69,"geometry":null,"properties":{"OBJECTID":69,"LAT":38.572746000000002,"LONG":-97.683580000000006,"Name":"APOTEK PHARMACY","Address":"605 W LINCOLN","City":"LINDSBORG","State":"KS","Zip":67456,"formated_phone":"785-227-3374","Status":"open","Icon":"small_green","Type":"Pharmacy"}},{"type":"Feature","id":70,"geometry":null,"properties":{"OBJECTID":70,"LAT":39.179562750000002,"LONG":-96.561955800000007,"Name":"BARRYS DRUG CENTER","Address":"414 POYNTZ AVE","City":"MANHATTAN","State":"KS","Zip":665026086,"formated_phone":"785-776-8833","Status":"open","Icon":"small_green","Type":"Pharmacy"}},{"type":"Feature","id":71,"geometry":null,"properties":{"OBJECTID":71,"LAT":38.347900000000003,"LONG":-97.020902169999999,"Name":"MARION HEALTHMART PHARMACY","Address":"217 E MAIN ST","City":"MARION","State":"KS","Zip":668611627,"formated_phone":"620-382-2135","Status":"open","Icon":"small_green","Type":"Pharmacy"}},{"type":"Feature","id":72,"geometry":null,"properties":{"OBJECTID":72,"LAT":39.841710999999997,"LONG":-96.648025099999998,"Name":"AR EX DRUG STORE","Address":"801 BROADWAY","City":"MARYSVILLE","State":"KS","Zip":66508,"formated_phone":"785-562-3196","Status":"open","Icon":"small_green","Type":"Pharmacy"}},{"type":"Feature","id":73,"geometry":null,"properties":{"OBJECTID":73,"LAT":39.122199999999999,"LONG":-97.707197960000002,"Name":"CITY PHARMACY LLC","Address":"209 W 2ND ST","City":"MINNEAPOLIS","State":"KS","Zip":674672393,"formated_phone":"785-392-2213","Status":"open","Icon":"small_green","Type":"Pharmacy"}},{"type":"Feature","id":74,"geometry":null,"properties":{"OBJECTID":74,"LAT":37.598050299999997,"LONG":-100.4428582,"Name":"MONTEZUMA DRUG","Address":"300 N AZTEC","City":"MONTEZUMA","State":"KS","Zip":67867,"formated_phone":"620-846-2202","Status":"open","Icon":"small_green","Type":"Pharmacy"}},{"type":"Feature","id":75,"geometry":null,"properties":{"OBJECTID":75,"LAT":37.490299999999998,"LONG":-97.247799999999998,"Name":"MULVANE PHARMACY INC","Address":"1008 SE LOUIS DR","City":"MULVANE","State":"KS","Zip":67110,"formated_phone":"316-777-1601","Status":"open","Icon":"small_green","Type":"Pharmacy"}},{"type":"Feature","id":76,"geometry":null,"properties":{"OBJECTID":76,"LAT":37.417700000000004,"LONG":-95.679873470000004,"Name":"PORTER DRUGS","Address":"506 MAIN ST","City":"NEODESHA","State":"KS","Zip":66757,"formated_phone":"620-325-2671","Status":"open","Icon":"small_green","Type":"Pharmacy"}},{"type":"Feature","id":77,"geometry":null,"properties":{"OBJECTID":77,"LAT":39.820085710000001,"LONG":-100.5288,"Name":"WARD DRUG STORE","Address":"142 S PENN AVE","City":"OBERLIN","State":"KS","Zip":67749,"formated_phone":"785-475-2285","Status":"open","Icon":"small_green","Type":"Pharmacy"}},{"type":"Feature","id":78,"geometry":null,"properties":{"OBJECTID":78,"LAT":39.489868999999999,"LONG":-96.169768000000005,"Name":"THE ONAGA PHARMACY","Address":"300 LEONARD ST","City":"ONAGA","State":"KS","Zip":665212644,"formated_phone":"785-889-7181","Status":"open","Icon":"small_green","Type":"Pharmacy"}},{"type":"Feature","id":79,"geometry":null,"properties":{"OBJECTID":79,"LAT":38.634399999999999,"LONG":-95.827299999999994,"Name":"GIBSON TRUECARE PHARMACY INC","Address":"521 MARKET ST","City":"OSAGE CITY","State":"KS","Zip":66523,"formated_phone":"785-528-4415","Status":"open","Icon":"small_green","Type":"Pharmacy"}},{"type":"Feature","id":80,"geometry":null,"properties":{"OBJECTID":80,"LAT":38.634399999999999,"LONG":-95.827012819999993,"Name":"SCHROEDER DRUGS","Address":"535 Market St","City":"OSAGE CITY","State":"KS","Zip":66523,"formated_phone":"785-528-4322","Status":"open","Icon":"small_green","Type":"Pharmacy"}},{"type":"Feature","id":81,"geometry":null,"properties":{"OBJECTID":81,"LAT":38.491553189999998,"LONG":-95.276300000000006,"Name":"KRAMER PHARMACY","Address":"134 S MAIN ST","City":"OTTAWA","State":"KS","Zip":660672343,"formated_phone":"785-242-2055","Status":"open","Icon":"small_green","Type":"Pharmacy"}},{"type":"Feature","id":82,"geometry":null,"properties":{"OBJECTID":82,"LAT":38.573524999999997,"LONG":-94.863500000000002,"Name":"Auburn Pharmacy","Address":"311 N HOSPITAL DR","City":"PAOLA","State":"KS","Zip":660711493,"formated_phone":"913-294-3516","Status":"open","Icon":"small_green","Type":"Pharmacy"}},{"type":"Feature","id":83,"geometry":null,"properties":{"OBJECTID":83,"LAT":37.340699999999998,"LONG":-95.257900000000006,"Name":"BOWEN PHARMACY","Address":"1519 MAIN ST","City":"PARSONS","State":"KS","Zip":673573381,"formated_phone":"620-421-4950","Status":"open","Icon":"small_green","Type":"Pharmacy"}},{"type":"Feature","id":84,"geometry":null,"properties":{"OBJECTID":84,"LAT":39.755699999999997,"LONG":-99.324600000000004,"Name":"Midwest Family Health","Address":"300 State St","City":"Phillipsburg","State":"KS","Zip":676611930,"formated_phone":"785-543-5131","Status":"open","Icon":"small_green","Type":"Pharmacy"}},{"type":"Feature","id":85,"geometry":null,"properties":{"OBJECTID":85,"LAT":38.979300000000002,"LONG":-94.632900000000006,"Name":"BRUCE SMITH DRUGS","Address":"25 ON THE MALL","City":"PRAIRIE VILLAGE","State":"KS","Zip":662088029,"formated_phone":"913-362-3100","Status":"open","Icon":"small_green","Type":"Pharmacy"}},{"type":"Feature","id":86,"geometry":null,"properties":{"OBJECTID":86,"LAT":38.840699999999998,"LONG":-97.603300000000004,"Name":"B AND K PRESCRIPTION SHOP","Address":"601 E IRON AVE","City":"SALINA","State":"KS","Zip":67401,"formated_phone":"785-827-4455","Status":"open","Icon":"small_green","Type":"Pharmacy"}},{"type":"Feature","id":87,"geometry":null,"properties":{"OBJECTID":87,"LAT":38.827100000000002,"LONG":-97.427599999999998,"Name":"KEY REXALL PHARMACY","Address":"901 E Crawford St","City":"SALINA","State":"KS","Zip":674016708,"formated_phone":"785-827-0408","Status":"open","Icon":"small_green","Type":"Pharmacy"}},{"type":"Feature","id":88,"geometry":null,"properties":{"OBJECTID":88,"LAT":39.777606120000002,"LONG":-98.785899999999998,"Name":"KRILEYS FAMILY DRUG CTR","Address":"125 S MAIN ST","City":"SMITH CENTER","State":"KS","Zip":669670245,"formated_phone":"785-282-6843","Status":"open","Icon":"small_green","Type":"Pharmacy"}},{"type":"Feature","id":89,"geometry":null,"properties":{"OBJECTID":89,"LAT":38.350000000000001,"LONG":-97.022065310000002,"Name":"KRIEN PHARMACY INC","Address":"105 W WASHINGTON ST","City":"ST FRANCIS","State":"KS","Zip":677560664,"formated_phone":"785-332-2177","Status":"open","Icon":"small_green","Type":"Pharmacy"}},{"type":"Feature","id":90,"geometry":null,"properties":{"OBJECTID":90,"LAT":39.4366871,"LONG":-99.275029399999994,"Name":"STOCKTON PHARMACY","Address":"402 MAIN","City":"STOCKTON","State":"KS","Zip":676691930,"formated_phone":"785-425-7172","Status":"open","Icon":"small_green","Type":"Pharmacy"}},{"type":"Feature","id":91,"geometry":null,"properties":{"OBJECTID":91,"LAT":37.980200000000004,"LONG":-101.75069999999999,"Name":"HAMILTON COUNTY DRUG STORE","Address":"302 E AVE A","City":"SYRACUSE","State":"KS","Zip":67878,"formated_phone":"620-384-7424","Status":"open","Icon":"small_green","Type":"Pharmacy"}},{"type":"Feature","id":92,"geometry":null,"properties":{"OBJECTID":92,"LAT":39.021371879999997,"LONG":-99.889899999999997,"Name":"CLELAND PHARMACY, LLC","Address":"202 S 1st St","City":"WAKEENEY","State":"KS","Zip":676722409,"formated_phone":"785-743-6321","Status":"open","Icon":"small_green","Type":"Pharmacy"}},{"type":"Feature","id":93,"geometry":null,"properties":{"OBJECTID":93,"LAT":39.022663639999998,"LONG":-99.8857,"Name":"GIBSON HEALTH MART","Address":"125 N MAIN ST","City":"WAKEENEY","State":"KS","Zip":67672,"formated_phone":"785-743-5753","Status":"open","Icon":"small_green","Type":"Pharmacy"}},{"type":"Feature","id":94,"geometry":null,"properties":{"OBJECTID":94,"LAT":39.190399999999997,"LONG":-96.417699999999996,"Name":"WAMEGO DRUG STORE","Address":"501 LINCOLN ST","City":"WAMEGO","State":"KS","Zip":665471633,"formated_phone":"785-456-9292","Status":"open","Icon":"small_green","Type":"Pharmacy"}},{"type":"Feature","id":95,"geometry":null,"properties":{"OBJECTID":95,"LAT":38.349286730000003,"LONG":-97.204899999999995,"Name":"HOFFMAN PHARMACY","Address":"402 MAIN ST","City":"WESTMORELAND","State":"KS","Zip":665499998,"formated_phone":"785-457-3611","Status":"open","Icon":"small_green","Type":"Pharmacy"}},{"type":"Feature","id":96,"geometry":null,"properties":{"OBJECTID":96,"LAT":37.697600000000001,"LONG":-97.316400000000002,"Name":"Via Christi Clinic Pharmacy","Address":"3311 E MURDOCK ST","City":"WICHITA","State":"KS","Zip":672083054,"formated_phone":"316-689-9280","Status":"open","Icon":"small_green","Type":"Pharmacy"}},{"type":"Feature","id":97,"geometry":null,"properties":{"OBJECTID":97,"LAT":39.21641837,"LONG":-95.313000000000002,"Name":"FW Huston Pharmacy","Address":"509 Delaware St","City":"Oskaloosa","State":"KS","Zip":660665429,"formated_phone":"785-863-3401","Status":"open","Icon":"small_green","Type":"Pharmacy"}},{"type":"Feature","id":98,"geometry":null,"properties":{"OBJECTID":98,"LAT":39.035657700000002,"LONG":-95.761799999999994,"Name":"KMART PHARMACY7444","Address":"1740 SW WANAMAKER ROAD","City":"TOPEKA","State":"KS","Zip":66604,"formated_phone":"785-273-4040","Status":"open","Icon":"small_green","Type":"Pharmacy"}},{"type":"Feature","id":99,"geometry":null,"properties":{"OBJECTID":99,"LAT":37.921387299999999,"LONG":-95.405654600000005,"Name":"IOLA PHARMACY","Address":"109 E MADISON","City":"IOLA","State":"KS","Zip":667493390,"formated_phone":"620-365-3176","Status":"open","Icon":"small_green","Type":"Pharmacy"}},{"type":"Feature","id":100,"geometry":null,"properties":{"OBJECTID":100,"LAT":38.599600000000002,"LONG":-97.064499999999995,"Name":"MEDICAL CENTER PHARMACY","Address":"400 W 4TH ST SUITE 1","City":"MC PHERSON","State":"KS","Zip":674602306,"formated_phone":"620-241-0022","Status":"open","Icon":"small_green","Type":"Pharmacy"}},{"type":"Feature","id":101,"geometry":null,"properties":{"OBJECTID":101,"LAT":37.701642999999997,"LONG":-97.333640000000003,"Name":"CONSUMERS PHARMACY","Address":"1035 N EMPORIA SUITE 170","City":"WICHITA","State":"KS","Zip":672142944,"formated_phone":"316-263-6233","Status":"open","Icon":"small_green","Type":"Pharmacy"}},{"type":"Feature","id":102,"geometry":null,"properties":{"OBJECTID":102,"LAT":39.116599999999998,"LONG":-94.762251280000001,"Name":"KMART PHARMACY4215","Address":"7836 STATE AVE","City":"KANSAS CITY","State":"KS","Zip":66112,"formated_phone":"913-299-6016","Status":"open","Icon":"small_green","Type":"Pharmacy"}},{"type":"Feature","id":103,"geometry":null,"properties":{"OBJECTID":103,"LAT":38.350700000000003,"LONG":-97.2089,"Name":"MYERS FAMILY CENTER","Address":"616 CEDAR ST","City":"CEDAR VALE","State":"KS","Zip":670249998,"formated_phone":"620-758-2711","Status":"open","Icon":"small_green","Type":"Pharmacy"}},{"type":"Feature","id":104,"geometry":null,"properties":{"OBJECTID":104,"LAT":37.433799999999998,"LONG":-96.7654,"Name":"FERGUSON REXALL DRUGS","Address":"713 5TH ST","City":"CLAY CENTER","State":"KS","Zip":674322936,"formated_phone":"785-632-3121","Status":"open","Icon":"small_green","Type":"Pharmacy"}},{"type":"Feature","id":105,"geometry":null,"properties":{"OBJECTID":105,"LAT":37.694489160000003,"LONG":-97.432449869999999,"Name":"DANDURAND DRUG","Address":"7732 E CENTRAL ST","City":"WICHITA","State":"KS","Zip":672062163,"formated_phone":"316-685-2353","Status":"open","Icon":"small_green","Type":"Pharmacy"}},{"type":"Feature","id":106,"geometry":null,"properties":{"OBJECTID":106,"LAT":39.3667728,"LONG":-99.841913500000004,"Name":"WISE DRUG INC","Address":"308 N POMEROY","City":"HILL CITY","State":"KS","Zip":67642,"formated_phone":"785-421-5632","Status":"open","Icon":"small_green","Type":"Pharmacy"}},{"type":"Feature","id":107,"geometry":null,"properties":{"OBJECTID":107,"LAT":39.049500000000002,"LONG":-95.696799999999996,"Name":"CONTINENTAL PHARMACY LLC","Address":"631 SW HORNE STREET","City":"TOPEKA","State":"KS","Zip":666061663,"formated_phone":"785-232-6975","Status":"open","Icon":"small_green","Type":"Pharmacy"}},{"type":"Feature","id":108,"geometry":null,"properties":{"OBJECTID":108,"LAT":38.165242399999997,"LONG":-97.106802700000003,"Name":"DONS REXALL DRUG","Address":"126 WALNUT","City":"PEABODY","State":"KS","Zip":668661062,"formated_phone":"620-983-2162","Status":"open","Icon":"small_green","Type":"Pharmacy"}},{"type":"Feature","id":109,"geometry":null,"properties":{"OBJECTID":109,"LAT":37.663499799999997,"LONG":-95.452532899999994,"Name":"MEDICAP","Address":"1720 S SANTA FE PO BOX 126","City":"CHANUTE","State":"KS","Zip":66720,"formated_phone":"620-431-0898","Status":"open","Icon":"small_green","Type":"Pharmacy"}},{"type":"Feature","id":110,"geometry":null,"properties":{"OBJECTID":110,"LAT":39.051600000000001,"LONG":-95.705045830000003,"Name":"MEDICAL ARTS PBA PHARMACY","Address":"2252 SW 10TH ST","City":"TOPEKA","State":"KS","Zip":66604,"formated_phone":"785-235-8796","Status":"open","Icon":"small_green","Type":"Pharmacy"}},{"type":"Feature","id":111,"geometry":null,"properties":{"OBJECTID":111,"LAT":39.057600000000001,"LONG":-94.611800000000002,"Name":"University of Kansas Hospital Retail Pharmacy","Address":"3901 RAINBOW BLVD Mailstop 4040","City":"KANSAS CITY","State":"KS","Zip":66160,"formated_phone":"913-588-2371","Status":"open","Icon":"small_green","Type":"Pharmacy"}},{"type":"Feature","id":112,"geometry":null,"properties":{"OBJECTID":112,"LAT":37.605926400000001,"LONG":-97.332169500000006,"Name":"KMART PHARMACY3358","Address":"4830 S BROADWAY","City":"WICHITA","State":"KS","Zip":67216,"formated_phone":"316-522-4701","Status":"open","Icon":"small_green","Type":"Pharmacy"}},{"type":"Feature","id":113,"geometry":null,"properties":{"OBJECTID":113,"LAT":39.786032800000001,"LONG":-98.210009299999996,"Name":"MANKATO PROFESSIONAL PHARMACY","Address":"125 N COMMERCIAL","City":"MANKATO","State":"KS","Zip":669560266,"formated_phone":"785-378-3183","Status":"open","Icon":"small_green","Type":"Pharmacy"}},{"type":"Feature","id":114,"geometry":null,"properties":{"OBJECTID":114,"LAT":37.501685709999997,"LONG":-94.8459,"Name":"LINDBURG PHARMACY INC","Address":"909 E CENTENNIAL","City":"PITTSBURG","State":"KS","Zip":667626600,"formated_phone":"620-231-8130","Status":"open","Icon":"small_green","Type":"Pharmacy"}},{"type":"Feature","id":115,"geometry":null,"properties":{"OBJECTID":115,"LAT":39.128399999999999,"LONG":-94.630799999999994,"Name":"MEDICINE SHOPPE","Address":"6523 Parallel Ave","City":"KANSAS CITY","State":"KS","Zip":661021046,"formated_phone":"913-788-3344","Status":"open","Icon":"small_green","Type":"Pharmacy"}},{"type":"Feature","id":116,"geometry":null,"properties":{"OBJECTID":116,"LAT":37.675447499999997,"LONG":-97.393234899999996,"Name":"KMART PHARMACY4171","Address":"4200 W KELLOGG","City":"WICHITA","State":"KS","Zip":67209,"formated_phone":"316-942-8253","Status":"open","Icon":"small_green","Type":"Pharmacy"}},{"type":"Feature","id":117,"geometry":null,"properties":{"OBJECTID":117,"LAT":37.917299999999997,"LONG":-97.428435710000002,"Name":"DILLON PHARMACY","Address":"206 W 5TH ST","City":"HUTCHINSON","State":"KS","Zip":67501,"formated_phone":"620-663-3375","Status":"open","Icon":"small_green","Type":"Pharmacy"}},{"type":"Feature","id":118,"geometry":null,"properties":{"OBJECTID":118,"LAT":38.349052380000003,"LONG":-97.204499999999996,"Name":"DOUGS PHARMACY","Address":"430 MAIN ST","City":"ROSSVILLE","State":"KS","Zip":665330707,"formated_phone":"785-584-6722","Status":"open","Icon":"small_green","Type":"Pharmacy"}},{"type":"Feature","id":119,"geometry":null,"properties":{"OBJECTID":119,"LAT":37.975200000000001,"LONG":-100.8585533,"Name":"DILLON PHARMACY","Address":"1305 E KANSAS AVE","City":"GARDEN CITY","State":"KS","Zip":67846,"formated_phone":"620-275-1957","Status":"open","Icon":"small_green","Type":"Pharmacy"}},{"type":"Feature","id":120,"geometry":null,"properties":{"OBJECTID":120,"LAT":38.394199999999998,"LONG":-97.666799999999995,"Name":"DILLON PHARMACY","Address":"1320 N MAIN","City":"MCPHERSON","State":"KS","Zip":67460,"formated_phone":"620-241-6108","Status":"open","Icon":"small_green","Type":"Pharmacy"}},{"type":"Feature","id":121,"geometry":null,"properties":{"OBJECTID":121,"LAT":39.116799999999998,"LONG":-94.709800000000001,"Name":"DeGoler's Pharmacy","Address":"5701 STATE AVE","City":"KANSAS CITY","State":"KS","Zip":66102,"formated_phone":"913-596-2133","Status":"open","Icon":"small_green","Type":"Pharmacy"}},{"type":"Feature","id":122,"geometry":null,"properties":{"OBJECTID":122,"LAT":39.1952,"LONG":-96.578299999999999,"Name":"KELLSTROM PHARMACY","Address":"1860 CLAFLIN RD","City":"MANHATTAN","State":"KS","Zip":665023492,"formated_phone":"785-776-1200","Status":"open","Icon":"small_green","Type":"Pharmacy"}},{"type":"Feature","id":123,"geometry":null,"properties":{"OBJECTID":123,"LAT":37.265799999999999,"LONG":-97.765500000000003,"Name":"CALDWELL PHARMACY","Address":"7 N MAIN ST","City":"CALDWELL","State":"KS","Zip":670221599,"formated_phone":"620-845-6916","Status":"open","Icon":"small_green","Type":"Pharmacy"}},{"type":"Feature","id":124,"geometry":null,"properties":{"OBJECTID":124,"LAT":38.834176300000003,"LONG":-97.626739599999993,"Name":"KMART PHARMACY7169","Address":"400 SOUTH BROADWAY","City":"SALINA","State":"KS","Zip":67401,"formated_phone":"785-825-2248","Status":"open","Icon":"small_green","Type":"Pharmacy"}},{"type":"Feature","id":125,"geometry":null,"properties":{"OBJECTID":125,"LAT":38.057200000000002,"LONG":-98.007499999999993,"Name":"DILLON PHARMACY","Address":"725 E 4TH ST","City":"HUTCHINSON","State":"KS","Zip":67501,"formated_phone":"620-669-8238","Status":"open","Icon":"small_green","Type":"Pharmacy"}},{"type":"Feature","id":126,"geometry":null,"properties":{"OBJECTID":126,"LAT":37.642509490000002,"LONG":-98.721421140000004,"Name":"Pratt Medical Arts Pharmacy","Address":"420 COUNTRY CLUB RD","City":"PRATT","State":"KS","Zip":671243125,"formated_phone":"316-672-7447","Status":"open","Icon":"small_green","Type":"Pharmacy"}},{"type":"Feature","id":127,"geometry":null,"properties":{"OBJECTID":127,"LAT":37.504986000000002,"LONG":-97.505384000000006,"Name":"BALES PHARMACY","Address":"116 E ROSS","City":"CLEARWATER","State":"KS","Zip":670260459,"formated_phone":"620-584-2025","Status":"open","Icon":"small_green","Type":"Pharmacy"}},{"type":"Feature","id":128,"geometry":null,"properties":{"OBJECTID":128,"LAT":38.056302299999999,"LONG":-97.344915,"Name":"DILLON PHARMACY","Address":"1216 NORTH MAIN","City":"NEWTON","State":"KS","Zip":67114,"formated_phone":"316-283-6770","Status":"open","Icon":"small_green","Type":"Pharmacy"}},{"type":"Feature","id":129,"geometry":null,"properties":{"OBJECTID":129,"LAT":38.875183329999999,"LONG":-99.317700000000002,"Name":"DILLON PHARMACY","Address":"1902 VINE ST","City":"HAYS","State":"KS","Zip":67601,"formated_phone":"785-628-6148","Status":"open","Icon":"small_green","Type":"Pharmacy"}},{"type":"Feature","id":130,"geometry":null,"properties":{"OBJECTID":130,"LAT":38.0867,"LONG":-97.905417330000006,"Name":"KMART PHARMACY3184","Address":"1320 E THIRTIETH AVE","City":"HUTCHINSON","State":"KS","Zip":675024298,"formated_phone":"620-669-8559","Status":"open","Icon":"small_green","Type":"Pharmacy"}},{"type":"Feature","id":131,"geometry":null,"properties":{"OBJECTID":131,"LAT":37.066611999999999,"LONG":-97.039934000000002,"Name":"DILLON PHARMACY","Address":"425 N SUMMIT","City":"ARKANSAS CITY","State":"KS","Zip":67005,"formated_phone":"620-442-7842","Status":"open","Icon":"small_green","Type":"Pharmacy"}},{"type":"Feature","id":132,"geometry":null,"properties":{"OBJECTID":132,"LAT":39.029499999999999,"LONG":-94.6584,"Name":"CVS PHARMACY","Address":"6300 JOHNSON DR","City":"MISSION","State":"KS","Zip":66202,"formated_phone":"913-722-3711","Status":"open","Icon":"small_green","Type":"Pharmacy"}},{"type":"Feature","id":133,"geometry":null,"properties":{"OBJECTID":133,"LAT":38.3598,"LONG":-97.204700000000003,"Name":"ASHCRAFT PHARMACY","Address":"503 N MAIN ST","City":"S HUTCHINSON","State":"KS","Zip":675051123,"formated_phone":"620-663-2258","Status":"open","Icon":"small_green","Type":"Pharmacy"}},{"type":"Feature","id":134,"geometry":null,"properties":{"OBJECTID":134,"LAT":37.608984900000003,"LONG":-97.335238000000004,"Name":"DILLON PHARMACY","Address":"4747 S BROADWAY","City":"WICHITA","State":"KS","Zip":67216,"formated_phone":"316-524-4228","Status":"open","Icon":"small_green","Type":"Pharmacy"}},{"type":"Feature","id":135,"geometry":null,"properties":{"OBJECTID":135,"LAT":39.075099999999999,"LONG":-94.663779590000004,"Name":"BOND PHARMACY","Address":"3017 STRONG AVE","City":"KANSAS CITY","State":"KS","Zip":661062190,"formated_phone":"913-831-1500","Status":"open","Icon":"small_green","Type":"Pharmacy"}},{"type":"Feature","id":136,"geometry":null,"properties":{"OBJECTID":136,"LAT":39.311111199999999,"LONG":-94.922463699999994,"Name":"KMART PHARMACY9647","Address":"4820 4TH ST TRAFFICWAY","City":"LEAVENWORTH","State":"KS","Zip":66048,"formated_phone":"913-727-2255","Status":"open","Icon":"small_green","Type":"Pharmacy"}},{"type":"Feature","id":137,"geometry":null,"properties":{"OBJECTID":137,"LAT":37.561878499999999,"LONG":-97.262119799999994,"Name":"DAMM PHARMACY","Address":"1412 N WOODLAWN","City":"DERBY","State":"KS","Zip":670372998,"formated_phone":"316-788-5533","Status":"open","Icon":"small_green","Type":"Pharmacy"}},{"type":"Feature","id":138,"geometry":null,"properties":{"OBJECTID":138,"LAT":39.568455200000002,"LONG":-97.670742700000005,"Name":"FUNK PHARMACY","Address":"1020 ELMHURST AVE","City":"CONCORDIA","State":"KS","Zip":669013900,"formated_phone":"785-243-4414","Status":"open","Icon":"small_green","Type":"Pharmacy"}},{"type":"Feature","id":139,"geometry":null,"properties":{"OBJECTID":139,"LAT":39.834499999999998,"LONG":-96.062700000000007,"Name":"MEDICAL ARTS PHARMACY","Address":"701 MAIN STREET","City":"SENECA","State":"KS","Zip":665381931,"formated_phone":"785-336-6146","Status":"open","Icon":"small_green","Type":"Pharmacy"}},{"type":"Feature","id":140,"geometry":null,"properties":{"OBJECTID":140,"LAT":37.709000000000003,"LONG":-97.444842859999994,"Name":"DILLON PHARMACY","Address":"8828 W 13TH ST","City":"WICHITA","State":"KS","Zip":67212,"formated_phone":"316-722-9733","Status":"open","Icon":"small_green","Type":"Pharmacy"}},{"type":"Feature","id":141,"geometry":null,"properties":{"OBJECTID":141,"LAT":38.8260857,"LONG":-97.623632599999993,"Name":"DILLON PHARMACY","Address":"1201 W CRAWFORD","City":"SALINA","State":"KS","Zip":67401,"formated_phone":"785-827-0417","Status":"open","Icon":"small_green","Type":"Pharmacy"}},{"type":"Feature","id":142,"geometry":null,"properties":{"OBJECTID":142,"LAT":37.690853300000001,"LONG":-96.970019899999997,"Name":"DILLON PHARMACY","Address":"1510 OHIO","City":"AUGUSTA","State":"KS","Zip":67010,"formated_phone":"316-775-5456","Status":"open","Icon":"small_green","Type":"Pharmacy"}},{"type":"Feature","id":143,"geometry":null,"properties":{"OBJECTID":143,"LAT":38.361600000000003,"LONG":-98.793748980000004,"Name":"DILLON PHARMACY","Address":"4107 10TH ST","City":"GREAT BEND","State":"KS","Zip":67530,"formated_phone":"620-792-5944","Status":"open","Icon":"small_green","Type":"Pharmacy"}},{"type":"Feature","id":144,"geometry":null,"properties":{"OBJECTID":144,"LAT":38.364389799999998,"LONG":-98.7864,"Name":"MEDICAL PARK PHARMACY","Address":"1309 POLK ST","City":"GREAT BEND","State":"KS","Zip":67530,"formated_phone":"620-792-1221","Status":"open","Icon":"small_green","Type":"Pharmacy"}},{"type":"Feature","id":145,"geometry":null,"properties":{"OBJECTID":145,"LAT":39.088437839999997,"LONG":-95.672899999999998,"Name":"KMART PHARMACY7409","Address":"2240 N TYLER ST","City":"TOPEKA","State":"KS","Zip":66608,"formated_phone":"785-233-7003","Status":"open","Icon":"small_green","Type":"Pharmacy"}},{"type":"Feature","id":146,"geometry":null,"properties":{"OBJECTID":146,"LAT":38.1881725,"LONG":-99.101498100000001,"Name":"REED DISCOUNT PHARMACY INC","Address":"326 W 14TH","City":"LARNED","State":"KS","Zip":67550,"formated_phone":"620-285-6286","Status":"open","Icon":"small_green","Type":"Pharmacy"}},{"type":"Feature","id":147,"geometry":null,"properties":{"OBJECTID":147,"LAT":39.503024490000001,"LONG":-98.544399999999996,"Name":"CORNER DRUG AND GIFT INC","Address":"823 MORGAN AVE","City":"DOWNS","State":"KS","Zip":67437,"formated_phone":"785-454-6614","Status":"open","Icon":"small_green","Type":"Pharmacy"}},{"type":"Feature","id":148,"geometry":null,"properties":{"OBJECTID":148,"LAT":37.001944440000003,"LONG":-101.9058,"Name":"C AND R CLINIC PHARMACY INC","Address":"411 SUNSET DR","City":"ELKHART","State":"KS","Zip":67950,"formated_phone":"620-697-2131","Status":"open","Icon":"small_green","Type":"Pharmacy"}},{"type":"Feature","id":149,"geometry":null,"properties":{"OBJECTID":149,"LAT":39.317844610000002,"LONG":-94.91420214,"Name":"THE CORNER PHARMACY","Address":"429 DELAWARE ST","City":"LEAVENWORTH","State":"KS","Zip":660482783,"formated_phone":"913-682-1602","Status":"open","Icon":"small_green","Type":"Pharmacy"}},{"type":"Feature","id":150,"geometry":null,"properties":{"OBJECTID":150,"LAT":38.948300000000003,"LONG":-95.235900000000001,"Name":"DILLON PHARMACY","Address":"1740 Massachusetts St","City":"LAWRENCE","State":"KS","Zip":660461903,"formated_phone":"785-842-2434","Status":"open","Icon":"small_green","Type":"Pharmacy"}},{"type":"Feature","id":151,"geometry":null,"properties":{"OBJECTID":151,"LAT":37.764925900000001,"LONG":-100.0323935,"Name":"DILLON PHARMACY","Address":"1700 N 14TH","City":"DODGE CITY","State":"KS","Zip":67801,"formated_phone":"620-225-6140","Status":"open","Icon":"small_green","Type":"Pharmacy"}},{"type":"Feature","id":152,"geometry":null,"properties":{"OBJECTID":152,"LAT":39.02841806,"LONG":-96.839419520000007,"Name":"DILLON PHARMACY","Address":"618 W 6TH ST","City":"JUNCTION CITY","State":"KS","Zip":66441,"formated_phone":"785-238-4141","Status":"open","Icon":"small_green","Type":"Pharmacy"}},{"type":"Feature","id":153,"geometry":null,"properties":{"OBJECTID":153,"LAT":37.432014799999997,"LONG":-94.703724899999997,"Name":"DILLON PHARMACY","Address":"2600 N BROADWAY","City":"PITTSBURG","State":"KS","Zip":66762,"formated_phone":"620-232-3066","Status":"open","Icon":"small_green","Type":"Pharmacy"}},{"type":"Feature","id":154,"geometry":null,"properties":{"OBJECTID":154,"LAT":38.906918240000003,"LONG":-95.260400000000004,"Name":"WAL-MART PHARMACY 10-0484","Address":"3300 IOWA STREET","City":"LAWRENCE","State":"KS","Zip":66046,"formated_phone":"785-842-0177","Status":"open","Icon":"small_green","Type":"Pharmacy"}},{"type":"Feature","id":155,"geometry":null,"properties":{"OBJECTID":155,"LAT":38.084600000000002,"LONG":-99.893799999999999,"Name":"RENOS PHARMACY","Address":"519 MAIN STREET","City":"JETMORE","State":"KS","Zip":67854,"formated_phone":"620-357-8305","Status":"open","Icon":"small_green","Type":"Pharmacy"}},{"type":"Feature","id":156,"geometry":null,"properties":{"OBJECTID":156,"LAT":38.425896229999999,"LONG":-96.217299999999994,"Name":"WAL-MART PHARMACY 10-0557","Address":"2301 INDUSTRIAL ROAD","City":"EMPORIA","State":"KS","Zip":66801,"formated_phone":"620-342-7711","Status":"open","Icon":"small_green","Type":"Pharmacy"}},{"type":"Feature","id":157,"geometry":null,"properties":{"OBJECTID":157,"LAT":37.121793699999998,"LONG":-95.576798600000004,"Name":"51935","Address":"1863 County Rd 5300","City":"COFFEYVILLE","State":"KS","Zip":67337,"formated_phone":"620-251-5528","Status":"open","Icon":"small_green","Type":"Pharmacy"}},{"type":"Feature","id":158,"geometry":null,"properties":{"OBJECTID":158,"LAT":39.903599999999997,"LONG":-95.801616330000002,"Name":"SABETHA HEALTHMART","Address":"934 MAIN ST","City":"SABETHA","State":"KS","Zip":665341829,"formated_phone":"785-284-3414","Status":"open","Icon":"small_green","Type":"Pharmacy"}},{"type":"Feature","id":159,"geometry":null,"properties":{"OBJECTID":159,"LAT":37.664700000000003,"LONG":-97.272499999999994,"Name":"DILLON PHARMACY","Address":"5500 E Harry St","City":"Wichita","State":"KS","Zip":67218,"formated_phone":"316-686-9200","Status":"open","Icon":"small_green","Type":"Pharmacy"}},{"type":"Feature","id":160,"geometry":null,"properties":{"OBJECTID":160,"LAT":39.0871,"LONG":-94.879846150000006,"Name":"WAL-MART PHARMACY 10-0486","Address":"12801 KANSAS AVENUE","City":"BONNER SPRINGS","State":"KS","Zip":66012,"formated_phone":"913-441-8800","Status":"open","Icon":"small_green","Type":"Pharmacy"}},{"type":"Feature","id":161,"geometry":null,"properties":{"OBJECTID":161,"LAT":37.709000000000003,"LONG":-97.388829169999994,"Name":"DILLON PHARMACY","Address":"3932 W 13TH ST","City":"WICHITA","State":"KS","Zip":67203,"formated_phone":"316-942-7636","Status":"open","Icon":"small_green","Type":"Pharmacy"}},{"type":"Feature","id":162,"geometry":null,"properties":{"OBJECTID":162,"LAT":38.831337499999997,"LONG":-97.594200000000001,"Name":"JIMS PHARMACY","Address":"582 S OHIO ST","City":"SALINA","State":"KS","Zip":67401,"formated_phone":"785-827-4114","Status":"open","Icon":"small_green","Type":"Pharmacy"}},{"type":"Feature","id":163,"geometry":null,"properties":{"OBJECTID":163,"LAT":37.6738,"LONG":-97.280500000000004,"Name":"PARKLANE PHARMACY","Address":"1530 S OLIVER ST STE 141","City":"WICHITA","State":"KS","Zip":672183240,"formated_phone":"316-685-2269","Status":"open","Icon":"small_green","Type":"Pharmacy"}},{"type":"Feature","id":164,"geometry":null,"properties":{"OBJECTID":164,"LAT":37.267582330000003,"LONG":-97.410753839999998,"Name":"DILLON PHARMACY","Address":"1111 W 8TH ST","City":"WELLINGTON","State":"KS","Zip":67152,"formated_phone":"620-326-5981","Status":"open","Icon":"small_green","Type":"Pharmacy"}},{"type":"Feature","id":165,"geometry":null,"properties":{"OBJECTID":165,"LAT":37.561100000000003,"LONG":-97.275499999999994,"Name":"WAL-MART PHARMACY 10-0592","Address":"2020 N Nelson Dr","City":"DERBY","State":"KS","Zip":670372572,"formated_phone":"316-788-3731","Status":"open","Icon":"small_green","Type":"Pharmacy"}},{"type":"Feature","id":166,"geometry":null,"properties":{"OBJECTID":166,"LAT":38.882467890000001,"LONG":-94.756100000000004,"Name":"WAL-MART PHARMACY 10-0577","Address":"13600 S. ALDEN ST.","City":"OLATHE","State":"KS","Zip":66062,"formated_phone":"913-829-5300","Status":"open","Icon":"small_green","Type":"Pharmacy"}},{"type":"Feature","id":167,"geometry":null,"properties":{"OBJECTID":167,"LAT":38.901800000000001,"LONG":-99.317800000000005,"Name":"WAL-MART PHARMACY 10-0664","Address":"4301 VINE STREET","City":"HAYS","State":"KS","Zip":67601,"formated_phone":"785-625-0037","Status":"open","Icon":"small_green","Type":"Pharmacy"}},{"type":"Feature","id":168,"geometry":null,"properties":{"OBJECTID":168,"LAT":37.975222649999999,"LONG":-100.8834181,"Name":"DILLON PHARMACY","Address":"1211 BUFFALO JONES AVE","City":"GARDEN CITY","State":"KS","Zip":67846,"formated_phone":"620-275-0194","Status":"open","Icon":"small_green","Type":"Pharmacy"}},{"type":"Feature","id":169,"geometry":null,"properties":{"OBJECTID":169,"LAT":37.437316000000003,"LONG":-100.9856047,"Name":"SATANTA RETAIL PHARMACY","Address":"401 CHEYENNE","City":"SATANTA","State":"KS","Zip":67870,"formated_phone":"620-649-2450","Status":"open","Icon":"small_green","Type":"Pharmacy"}},{"type":"Feature","id":170,"geometry":null,"properties":{"OBJECTID":170,"LAT":38.576300000000003,"LONG":-95.267700000000005,"Name":"WAL-MART PHARMACY 10-0382","Address":"2101 S Princeton St","City":"OTTAWA","State":"KS","Zip":660674007,"formated_phone":"785-242-1034","Status":"open","Icon":"small_green","Type":"Pharmacy"}},{"type":"Feature","id":171,"geometry":null,"properties":{"OBJECTID":171,"LAT":37.166968400000002,"LONG":-95.108797800000005,"Name":"OSWEGO DRUG STORE","Address":"413 COMMERCIAL","City":"OSWEGO","State":"KS","Zip":673562017,"formated_phone":"620-795-2233","Status":"open","Icon":"small_green","Type":"Pharmacy"}},{"type":"Feature","id":172,"geometry":null,"properties":{"OBJECTID":172,"LAT":37.6935,"LONG":-97.342100000000002,"Name":"PRESTON SOCORA PHARMACY","Address":"8200 W CENTRAL ST STE 2","City":"WICHITA","State":"KS","Zip":672123673,"formated_phone":"316-722-4248","Status":"open","Icon":"small_green","Type":"Pharmacy"}},{"type":"Feature","id":173,"geometry":null,"properties":{"OBJECTID":173,"LAT":38.361600000000003,"LONG":-98.786234879999995,"Name":"WAL-MART PHARMACY 10-0770","Address":"3503 TENTH STREET","City":"GREAT BEND","State":"KS","Zip":67530,"formated_phone":"620-792-5237","Status":"open","Icon":"small_green","Type":"Pharmacy"}},{"type":"Feature","id":174,"geometry":null,"properties":{"OBJECTID":174,"LAT":37.068600000000004,"LONG":-100.8143,"Name":"WAL-MART PHARMACY 10-0799","Address":"250 EAST TUCKER ROAD","City":"LIBERAL","State":"KS","Zip":67901,"formated_phone":"620-626-4240","Status":"open","Icon":"small_green","Type":"Pharmacy"}},{"type":"Feature","id":175,"geometry":null,"properties":{"OBJECTID":175,"LAT":38.070184400000002,"LONG":-97.8924418,"Name":"WAL-MART PHARMACY 10-0794","Address":"1905 E 17TH STREET","City":"HUTCHINSON","State":"KS","Zip":67501,"formated_phone":"620-669-0125","Status":"open","Icon":"small_green","Type":"Pharmacy"}},{"type":"Feature","id":176,"geometry":null,"properties":{"OBJECTID":176,"LAT":39.051000000000002,"LONG":-95.724699999999999,"Name":"WALGREENS #7778","Address":"1001 SW GAGE BLVD","City":"TOPEKA","State":"KS","Zip":66604,"formated_phone":"785-272-2690","Status":"open","Icon":"small_green","Type":"Pharmacy"}},{"type":"Feature","id":177,"geometry":null,"properties":{"OBJECTID":177,"LAT":38.068617600000003,"LONG":-97.916125100000002,"Name":"DILLON PHARMACY","Address":"3200 Plaza East Dr","City":"HUTCHINSON","State":"KS","Zip":67502,"formated_phone":"620-663-7628","Status":"open","Icon":"small_green","Type":"Pharmacy"}},{"type":"Feature","id":178,"geometry":null,"properties":{"OBJECTID":178,"LAT":37.636140699999999,"LONG":-97.353960599999994,"Name":"DILLON PHARMACY","Address":"3211 S SENECA","City":"WICHITA","State":"KS","Zip":67217,"formated_phone":"316-522-4545","Status":"open","Icon":"small_green","Type":"Pharmacy"}},{"type":"Feature","id":179,"geometry":null,"properties":{"OBJECTID":179,"LAT":38.883037199999997,"LONG":-94.809804999999997,"Name":"MEDICINE STORE","Address":"539 E SANTA FE","City":"OLATHE","State":"KS","Zip":66061,"formated_phone":"913-764-1800","Status":"open","Icon":"small_green","Type":"Pharmacy"}},{"type":"Feature","id":180,"geometry":null,"properties":{"OBJECTID":180,"LAT":37.634300000000003,"LONG":-99.754400000000004,"Name":"Gibson's Pharmacy","Address":"2610 CENTRAL AVENUE","City":"DODGE CITY","State":"KS","Zip":678016271,"formated_phone":"620-227-8193","Status":"open","Icon":"small_green","Type":"Pharmacy"}},{"type":"Feature","id":181,"geometry":null,"properties":{"OBJECTID":181,"LAT":39.014899999999997,"LONG":-95.651700000000005,"Name":"WALGREENS #3772","Address":"2901 SE CALIFORNIA AVE","City":"TOPEKA","State":"KS","Zip":66605,"formated_phone":"785-266-5197","Status":"open","Icon":"small_green","Type":"Pharmacy"}},{"type":"Feature","id":182,"geometry":null,"properties":{"OBJECTID":182,"LAT":37.533999999999999,"LONG":-95.847099999999998,"Name":"FREDONIA PHARMACY","Address":"628 MADISON ST","City":"FREDONIA","State":"KS","Zip":667361390,"formated_phone":"620-378-4422","Status":"open","Icon":"small_green","Type":"Pharmacy"}},{"type":"Feature","id":183,"geometry":null,"properties":{"OBJECTID":183,"LAT":37.796867599999999,"LONG":-97.337099699999996,"Name":"LEEKERS FAMILY PHARMACY","Address":"6223 N BROADWAY","City":"WICHITA","State":"KS","Zip":672191194,"formated_phone":"316-744-3948","Status":"open","Icon":"small_green","Type":"Pharmacy"}},{"type":"Feature","id":184,"geometry":null,"properties":{"OBJECTID":184,"LAT":39.0154,"LONG":-95.649150000000006,"Name":"DILLON PHARMACY","Address":"2010 SE 29TH ST","City":"TOPEKA","State":"KS","Zip":66605,"formated_phone":"785-267-0234","Status":"open","Icon":"small_green","Type":"Pharmacy"}},{"type":"Feature","id":185,"geometry":null,"properties":{"OBJECTID":185,"LAT":38.971784739999997,"LONG":-95.271980209999995,"Name":"DILLON PHARMACY","Address":"3000 W 6TH ST","City":"LAWRENCE","State":"KS","Zip":66049,"formated_phone":"785-843-0847","Status":"open","Icon":"small_green","Type":"Pharmacy"}},{"type":"Feature","id":186,"geometry":null,"properties":{"OBJECTID":186,"LAT":38.138399999999997,"LONG":-97.431799999999996,"Name":"HESSTON PHARMACY","Address":"101 S MAIN ST","City":"HESSTON","State":"KS","Zip":670628940,"formated_phone":"620-327-2211","Status":"open","Icon":"small_green","Type":"Pharmacy"}},{"type":"Feature","id":187,"geometry":null,"properties":{"OBJECTID":187,"LAT":37.275399999999998,"LONG":-97.383200000000002,"Name":"WAL-MART PHARMACY 10-0370","Address":"2022 E 16TH ST","City":"WELLINGTON","State":"KS","Zip":67152,"formated_phone":"620-326-3321","Status":"open","Icon":"small_green","Type":"Pharmacy"}},{"type":"Feature","id":188,"geometry":null,"properties":{"OBJECTID":188,"LAT":38.367963000000003,"LONG":-97.628270000000001,"Name":"WAL-MART PHARMACY 10-0993","Address":"205 SO. CENTENNIAL DRIVE","City":"MCPHERSON","State":"KS","Zip":67460,"formated_phone":"620-241-0941","Status":"open","Icon":"small_green","Type":"Pharmacy"}},{"type":"Feature","id":189,"geometry":null,"properties":{"OBJECTID":189,"LAT":38.818800000000003,"LONG":-95.692216329999994,"Name":"AuBurn Pharmacy","Address":"211 E MAIN ST","City":"CARBONDALE","State":"KS","Zip":66414,"formated_phone":"785-836-7202","Status":"open","Icon":"small_green","Type":"Pharmacy"}},{"type":"Feature","id":190,"geometry":null,"properties":{"OBJECTID":190,"LAT":38.971299999999999,"LONG":-94.742323249999998,"Name":"CVS PHARMACY","Address":"13502 W 87th Street Pkwy","City":"LENEXA","State":"KS","Zip":66215,"formated_phone":"913-492-4650","Status":"open","Icon":"small_green","Type":"Pharmacy"}},{"type":"Feature","id":191,"geometry":null,"properties":{"OBJECTID":191,"LAT":37.7241,"LONG":-97.244240820000002,"Name":"DILLON PHARMACY","Address":"2244 N ROCK RD CT","City":"WICHITA","State":"KS","Zip":67226,"formated_phone":"316-685-5740","Status":"open","Icon":"small_green","Type":"Pharmacy"}},{"type":"Feature","id":192,"geometry":null,"properties":{"OBJECTID":192,"LAT":37.089855999999997,"LONG":-97.042486999999994,"Name":"WAL-MART PHARMACY 10-0978","Address":"2701 NORTH SUMMIT","City":"ARKANSAS CITY","State":"KS","Zip":67005,"formated_phone":"620-442-2051","Status":"open","Icon":"small_green","Type":"Pharmacy"}},{"type":"Feature","id":193,"geometry":null,"properties":{"OBJECTID":193,"LAT":39.56075809,"LONG":-95.147029380000006,"Name":"WAL-MART PHARMACY 10-1054","Address":"1920 Highway 73","City":"ATCHISON","State":"KS","Zip":660025102,"formated_phone":"913-367-6142","Status":"open","Icon":"small_green","Type":"Pharmacy"}},{"type":"Feature","id":194,"geometry":null,"properties":{"OBJECTID":194,"LAT":38.936100000000003,"LONG":-94.723600000000005,"Name":"Stark Edler Apothecary","Address":"10600 QUIVIRA RD STE 100","City":"OVERLAND PARK","State":"KS","Zip":662152309,"formated_phone":"913-541-5050","Status":"open","Icon":"small_green","Type":"Pharmacy"}},{"type":"Feature","id":195,"geometry":null,"properties":{"OBJECTID":195,"LAT":39.269159999999999,"LONG":-94.928200000000004,"Name":"46091","Address":"5000 10th Ave","City":"LEAVENWORTH","State":"KS","Zip":66048,"formated_phone":"913-651-4070","Status":"open","Icon":"small_green","Type":"Pharmacy"}},{"type":"Feature","id":196,"geometry":null,"properties":{"OBJECTID":196,"LAT":37.985713689999997,"LONG":-100.8347024,"Name":"WAL-MART PHARMACY 10-0652","Address":"3101 EAST KANSAS AVE","City":"GARDEN CITY","State":"KS","Zip":67846,"formated_phone":"620-275-7557","Status":"open","Icon":"small_green","Type":"Pharmacy"}},{"type":"Feature","id":197,"geometry":null,"properties":{"OBJECTID":197,"LAT":37.564869330000001,"LONG":-97.352400000000003,"Name":"HAYSVILLE HEALTH MART PHARMACY","Address":"145 N MAIN ST","City":"HAYSVILLE","State":"KS","Zip":670601202,"formated_phone":"316-524-4234","Status":"open","Icon":"small_green","Type":"Pharmacy"}},{"type":"Feature","id":198,"geometry":null,"properties":{"OBJECTID":198,"LAT":37.9754,"LONG":-100.86419530000001,"Name":"GARDEN PHARMACY","Address":"701 KANSAS PLAZA","City":"GARDEN CITY","State":"KS","Zip":678465866,"formated_phone":"316-275-5791","Status":"open","Icon":"small_green","Type":"Pharmacy"}},{"type":"Feature","id":199,"geometry":null,"properties":{"OBJECTID":199,"LAT":39.191357660000001,"LONG":-96.609927839999997,"Name":"DILLON PHARMACY","Address":"1101 Westloop Pl","City":"MANHATTAN","State":"KS","Zip":66502,"formated_phone":"785-539-9454","Status":"open","Icon":"small_green","Type":"Pharmacy"}},{"type":"Feature","id":200,"geometry":null,"properties":{"OBJECTID":200,"LAT":39.128500000000003,"LONG":-94.715299999999999,"Name":"WAL-MART PHARMACY 10-1151","Address":"10824 Parallel Pkwy","City":"KANSAS CITY","State":"KS","Zip":661093649,"formated_phone":"913-788-3202","Status":"open","Icon":"small_green","Type":"Pharmacy"}},{"type":"Feature","id":201,"geometry":null,"properties":{"OBJECTID":201,"LAT":38.854399999999998,"LONG":-94.821742979999996,"Name":"PHARMACY EXPRESS","Address":"20375 W 151ST ST STE 100A","City":"OLATHE","State":"KS","Zip":660615350,"formated_phone":"913-791-4440","Status":"open","Icon":"small_green","Type":"Pharmacy"}},{"type":"Feature","id":202,"geometry":null,"properties":{"OBJECTID":202,"LAT":39.288699999999999,"LONG":-94.906490910000002,"Name":"CVS PHARMACY","Address":"390 LIMIT ST","City":"LEAVENWORTH","State":"KS","Zip":66048,"formated_phone":"913-651-2323","Status":"open","Icon":"small_green","Type":"Pharmacy"}},{"type":"Feature","id":203,"geometry":null,"properties":{"OBJECTID":203,"LAT":39.042299999999997,"LONG":-95.761700000000005,"Name":"WAL-MART PHARMACY 10-1802","Address":"1501 S.W. WANAMAKER ROAD","City":"TOPEKA","State":"KS","Zip":66604,"formated_phone":"785-271-5673","Status":"open","Icon":"small_green","Type":"Pharmacy"}},{"type":"Feature","id":204,"geometry":null,"properties":{"OBJECTID":204,"LAT":38.927399999999999,"LONG":-94.705100000000002,"Name":"STARK PROFESSIONAL PHARMACY","Address":"5520 COLLEGE BLVD","City":"OVERLAND PARK","State":"KS","Zip":662111643,"formated_phone":"913-345-8585","Status":"open","Icon":"small_green","Type":"Pharmacy"}},{"type":"Feature","id":205,"geometry":null,"properties":{"OBJECTID":205,"LAT":38.209716899999997,"LONG":-98.206832899999995,"Name":"REED PHARMACY","Address":"118 S BROADWAY","City":"STERLING","State":"KS","Zip":675792132,"formated_phone":"620-278-2110","Status":"open","Icon":"small_green","Type":"Pharmacy"}},{"type":"Feature","id":206,"geometry":null,"properties":{"OBJECTID":206,"LAT":39.050800000000002,"LONG":-95.772599999999997,"Name":"KING PHARMACY","Address":"4033 SW 10th Ave","City":"TOPEKA","State":"KS","Zip":666043904,"formated_phone":"785-271-1700","Status":"open","Icon":"small_green","Type":"Pharmacy"}},{"type":"Feature","id":207,"geometry":null,"properties":{"OBJECTID":207,"LAT":37.810258330000003,"LONG":-95.435599999999994,"Name":"HUMBOLDT PHARMACY","Address":"204 SOUTH 9TH ST","City":"HUMBOLDT","State":"KS","Zip":667480075,"formated_phone":"620-473-2520","Status":"open","Icon":"small_green","Type":"Pharmacy"}},{"type":"Feature","id":208,"geometry":null,"properties":{"OBJECTID":208,"LAT":37.722799999999999,"LONG":-97.299000000000007,"Name":"FAMILY PRESCRIPTION SHOP","Address":"7111 E 21ST ST","City":"WICHITA","State":"KS","Zip":672061078,"formated_phone":"316-684-7899","Status":"open","Icon":"small_green","Type":"Pharmacy"}},{"type":"Feature","id":209,"geometry":null,"properties":{"OBJECTID":209,"LAT":38.956899999999997,"LONG":-94.683999999999997,"Name":"HY VEE PHARMACY 1","Address":"8501 W 95th St","City":"OVERLAND PARK","State":"KS","Zip":662123220,"formated_phone":"913-894-2079","Status":"open","Icon":"small_green","Type":"Pharmacy"}},{"type":"Feature","id":210,"geometry":null,"properties":{"OBJECTID":210,"LAT":37.6753894,"LONG":-97.414113799999996,"Name":"WAL-MART PHARMACY 10-1221","Address":"6110 WEST KELLOG","City":"WICHITA","State":"KS","Zip":67209,"formated_phone":"316-945-8181","Status":"open","Icon":"small_green","Type":"Pharmacy"}},{"type":"Feature","id":211,"geometry":null,"properties":{"OBJECTID":211,"LAT":39.014800000000001,"LONG":-95.712924999999998,"Name":"DILLON PHARMACY","Address":"2815 SW 29TH ST","City":"TOPEKA","State":"KS","Zip":66614,"formated_phone":"785-272-0314","Status":"open","Icon":"small_green","Type":"Pharmacy"}},{"type":"Feature","id":212,"geometry":null,"properties":{"OBJECTID":212,"LAT":38.936100000000003,"LONG":-94.723600000000005,"Name":"MAHONEY'S COMPOUNDING PHARMACY, LLC","Address":"11844 QUIVIRA RD","City":"OVERLAND PARK","State":"KS","Zip":662101300,"formated_phone":"913-956-7711","Status":"open","Icon":"small_green","Type":"Pharmacy"}},{"type":"Feature","id":213,"geometry":null,"properties":{"OBJECTID":213,"LAT":39.015179209999999,"LONG":-94.740476229999999,"Name":"CVS PHARMACY","Address":"13438 W 62ND TER","City":"SHAWNEE","State":"KS","Zip":66216,"formated_phone":"913-962-0352","Status":"open","Icon":"small_green","Type":"Pharmacy"}},{"type":"Feature","id":214,"geometry":null,"properties":{"OBJECTID":214,"LAT":38.908700000000003,"LONG":-94.608000000000004,"Name":"HY VEE PHARMACY","Address":"12200 STATE LINE ROAD","City":"LEAWOOD","State":"KS","Zip":66209,"formated_phone":"913-345-9377","Status":"open","Icon":"small_green","Type":"Pharmacy"}},{"type":"Feature","id":215,"geometry":null,"properties":{"OBJECTID":215,"LAT":39.365200000000002,"LONG":-101.0489,"Name":"WAL-MART PHARMACY 10-1214","Address":"115 WEST WILLOW","City":"COLBY","State":"KS","Zip":67701,"formated_phone":"785-462-8651","Status":"open","Icon":"small_green","Type":"Pharmacy"}},{"type":"Feature","id":216,"geometry":null,"properties":{"OBJECTID":216,"LAT":38.942599999999999,"LONG":-95.246764429999999,"Name":"DILLON PHARMACY","Address":"1015 W 23RD ST","City":"LAWRENCE","State":"KS","Zip":66046,"formated_phone":"785-841-5110","Status":"open","Icon":"small_green","Type":"Pharmacy"}},{"type":"Feature","id":217,"geometry":null,"properties":{"OBJECTID":217,"LAT":37.942992750000002,"LONG":-95.40891594,"Name":"WAL-MART PHARMACY 10-1187","Address":"2200 N STATE ST","City":"IOLA","State":"KS","Zip":66749,"formated_phone":"620-365-7637","Status":"open","Icon":"small_green","Type":"Pharmacy"}},{"type":"Feature","id":218,"geometry":null,"properties":{"OBJECTID":218,"LAT":38.053199900000003,"LONG":-97.932299999999998,"Name":"FRAESE DRUG","Address":"25 N MAIN","City":"HUTCHINSON","State":"KS","Zip":67501,"formated_phone":"620-662-4477","Status":"open","Icon":"small_green","Type":"Pharmacy"}},{"type":"Feature","id":219,"geometry":null,"properties":{"OBJECTID":219,"LAT":37.8812,"LONG":-95.732791840000004,"Name":"YATES CENTER PHARMACY","Address":"122 W RUTLEDGE ST","City":"YATES CENTER","State":"KS","Zip":667831238,"formated_phone":"620-625-2221","Status":"open","Icon":"small_green","Type":"Pharmacy"}},{"type":"Feature","id":220,"geometry":null,"properties":{"OBJECTID":220,"LAT":38.470880299999997,"LONG":-101.75240650000001,"Name":"DIXON DRUG","Address":"422 BROADWAY","City":"TRIBUNE","State":"KS","Zip":67879,"formated_phone":"620-376-4224","Status":"open","Icon":"small_green","Type":"Pharmacy"}},{"type":"Feature","id":221,"geometry":null,"properties":{"OBJECTID":221,"LAT":39.841799999999999,"LONG":-96.605166670000003,"Name":"WAL-MART PHARMACY 10-0341","Address":"1174 PONY EXPRESS HWY","City":"MARYSVILLE","State":"KS","Zip":66508,"formated_phone":"785-562-3000","Status":"open","Icon":"small_green","Type":"Pharmacy"}},{"type":"Feature","id":222,"geometry":null,"properties":{"OBJECTID":222,"LAT":37.646099999999997,"LONG":-98.726885710000005,"Name":"DILLON PHARMACY","Address":"1108 E 1ST ST","City":"PRATT","State":"KS","Zip":67124,"formated_phone":"620-672-5584","Status":"open","Icon":"small_green","Type":"Pharmacy"}},{"type":"Feature","id":223,"geometry":null,"properties":{"OBJECTID":223,"LAT":37.285891300000003,"LONG":-100.3400512,"Name":"BACHMAN DRUG","Address":"129 S FOWLER","City":"MEADE","State":"KS","Zip":67864,"formated_phone":"620-873-2641","Status":"open","Icon":"small_green","Type":"Pharmacy"}},{"type":"Feature","id":224,"geometry":null,"properties":{"OBJECTID":224,"LAT":37.679200000000002,"LONG":-96.986357580000004,"Name":"WAL-MART PHARMACY 10-0346","Address":"719 W 7th Ave","City":"AUGUSTA","State":"KS","Zip":67010,"formated_phone":"316-775-1168","Status":"open","Icon":"small_green","Type":"Pharmacy"}},{"type":"Feature","id":225,"geometry":null,"properties":{"OBJECTID":225,"LAT":38.785904000000002,"LONG":-97.613100000000003,"Name":"WAL-MART PHARMACY 10-0558","Address":"2900 SOUTH 9TH ST","City":"SALINA","State":"KS","Zip":67401,"formated_phone":"785-825-4449","Status":"open","Icon":"small_green","Type":"Pharmacy"}},{"type":"Feature","id":226,"geometry":null,"properties":{"OBJECTID":226,"LAT":39.1173,"LONG":-95.085093650000005,"Name":"THE MEDICINE STORE","Address":"760 N STAR COURT","City":"TONGANOXIE","State":"KS","Zip":66086,"formated_phone":"913-369-2100","Status":"open","Icon":"small_green","Type":"Pharmacy"}},{"type":"Feature","id":227,"geometry":null,"properties":{"OBJECTID":227,"LAT":37.645800000000001,"LONG":-98.757962770000006,"Name":"WAL-MART PHARMACY 10-0419","Address":"2003 EAST 1ST ST","City":"PRATT","State":"KS","Zip":67124,"formated_phone":"620-672-7525","Status":"open","Icon":"small_green","Type":"Pharmacy"}},{"type":"Feature","id":228,"geometry":null,"properties":{"OBJECTID":228,"LAT":38.799716920000002,"LONG":-97.613399999999999,"Name":"DILLON PHARMACY","Address":"2350 PLANET AVE","City":"SALINA","State":"KS","Zip":67401,"formated_phone":"785-823-9515","Status":"open","Icon":"small_green","Type":"Pharmacy"}},{"type":"Feature","id":229,"geometry":null,"properties":{"OBJECTID":229,"LAT":37.652937999999999,"LONG":-95.452578200000005,"Name":"WAL-MART PHARMACY 10-0111","Address":"2700 SOUTH SANTA FE","City":"CHANUTE","State":"KS","Zip":66720,"formated_phone":"620-431-4064","Status":"open","Icon":"small_green","Type":"Pharmacy"}},{"type":"Feature","id":230,"geometry":null,"properties":{"OBJECTID":230,"LAT":37.738428570000004,"LONG":-97.244500000000002,"Name":"WAL-MART PHARMACY 10-1507","Address":"3030 NORTH ROCK RD","City":"WICHITA","State":"KS","Zip":67226,"formated_phone":"316-636-5384","Status":"open","Icon":"small_green","Type":"Pharmacy"}},{"type":"Feature","id":231,"geometry":null,"properties":{"OBJECTID":231,"LAT":39.391645699999998,"LONG":-97.122380800000002,"Name":"PATTERSON FMLY APOTHECARY","Address":"708 LIBERTY ST","City":"CLAY CENTER","State":"KS","Zip":674321529,"formated_phone":"785-632-3032","Status":"open","Icon":"small_green","Type":"Pharmacy"}},{"type":"Feature","id":232,"geometry":null,"properties":{"OBJECTID":232,"LAT":39.186500000000002,"LONG":-96.558708330000002,"Name":"49378","Address":"101 EAST BLUEMONT AVENUE","City":"MANHATTAN","State":"KS","Zip":66502,"formated_phone":"785-776-4841","Status":"open","Icon":"small_green","Type":"Pharmacy"}},{"type":"Feature","id":233,"geometry":null,"properties":{"OBJECTID":233,"LAT":37.693987200000002,"LONG":-97.449791000000005,"Name":"DILLON PHARMACY","Address":"10515 W CENTRAL","City":"WICHITA","State":"KS","Zip":67212,"formated_phone":"316-729-0431","Status":"open","Icon":"small_green","Type":"Pharmacy"}},{"type":"Feature","id":234,"geometry":null,"properties":{"OBJECTID":234,"LAT":38.914813100000003,"LONG":-94.663920399999995,"Name":"WAL-MART PHARMACY 10-1599","Address":"11701 METCALF","City":"OVERLAND PARK","State":"KS","Zip":66210,"formated_phone":"913-338-1849","Status":"open","Icon":"small_green","Type":"Pharmacy"}},{"type":"Feature","id":235,"geometry":null,"properties":{"OBJECTID":235,"LAT":37.053603000000003,"LONG":-100.9222417,"Name":"DILLON PHARMACY","Address":"1417 N KANSAS","City":"LIBERAL","State":"KS","Zip":67901,"formated_phone":"620-626-4234","Status":"open","Icon":"small_green","Type":"Pharmacy"}},{"type":"Feature","id":236,"geometry":null,"properties":{"OBJECTID":236,"LAT":37.769607690000001,"LONG":-100.0162,"Name":"MEDICAL CENTER PHARMACY","Address":"2020 CENTRAL AVE","City":"DODGE CITY","State":"KS","Zip":67801,"formated_phone":"620-227-8506","Status":"open","Icon":"small_green","Type":"Pharmacy"}},{"type":"Feature","id":237,"geometry":null,"properties":{"OBJECTID":237,"LAT":38.922400000000003,"LONG":-95.278700000000001,"Name":"ORCHARDS DRUG LC","Address":"1410 KASOLD DR STE A16","City":"LAWRENCE","State":"KS","Zip":660493424,"formated_phone":"785-843-8555","Status":"open","Icon":"small_green","Type":"Pharmacy"}},{"type":"Feature","id":238,"geometry":null,"properties":{"OBJECTID":238,"LAT":37.681600000000003,"LONG":-95.447734690000004,"Name":"MEDICINE SHOPPE PHARMACY","Address":"421 MAIN ST","City":"CHANUTE","State":"KS","Zip":66720,"formated_phone":"620-431-7193","Status":"open","Icon":"small_green","Type":"Pharmacy"}},{"type":"Feature","id":239,"geometry":null,"properties":{"OBJECTID":239,"LAT":37.767499999999998,"LONG":-100.03279999999999,"Name":"WAL-MART PHARMACY 10-0372","Address":"1905 NORTH 14 AVE","City":"DODGE CITY","State":"KS","Zip":67801,"formated_phone":"620-225-0872","Status":"open","Icon":"small_green","Type":"Pharmacy"}},{"type":"Feature","id":240,"geometry":null,"properties":{"OBJECTID":240,"LAT":39.295944900000002,"LONG":-94.908799999999999,"Name":"PRICE CHOPPER","Address":"2107 S 4TH STREET","City":"LEAVENWORTH","State":"KS","Zip":66048,"formated_phone":"913-651-6134","Status":"open","Icon":"small_green","Type":"Pharmacy"}},{"type":"Feature","id":241,"geometry":null,"properties":{"OBJECTID":241,"LAT":39.458954550000001,"LONG":-95.748099999999994,"Name":"WAL-MART PHARMACY 10-0378","Address":"209 ARIZONA AVE","City":"HOLTON","State":"KS","Zip":664361206,"formated_phone":"785-364-4619","Status":"open","Icon":"small_green","Type":"Pharmacy"}},{"type":"Feature","id":242,"geometry":null,"properties":{"OBJECTID":242,"LAT":38.450600000000001,"LONG":-99.905000000000001,"Name":"G AND L PHARMACY","Address":"207 S PENNSYLVANIA AVE","City":"NESS CITY","State":"KS","Zip":675601635,"formated_phone":"785-798-2897","Status":"open","Icon":"small_green","Type":"Pharmacy"}},{"type":"Feature","id":243,"geometry":null,"properties":{"OBJECTID":243,"LAT":37.226563300000002,"LONG":-95.706619900000007,"Name":"THE MEDICINE SHOPPE","Address":"400 N PENN AVE","City":"INDEPENDENCE","State":"KS","Zip":67301,"formated_phone":"620-331-0036","Status":"open","Icon":"small_green","Type":"Pharmacy"}},{"type":"Feature","id":244,"geometry":null,"properties":{"OBJECTID":244,"LAT":38.288789999999999,"LONG":-95.249399999999994,"Name":"AUBURN PHARMACY INC","Address":"429 N MAPLE STREET","City":"GARNETT","State":"KS","Zip":660321074,"formated_phone":"785-448-6122","Status":"open","Icon":"small_green","Type":"Pharmacy"}},{"type":"Feature","id":245,"geometry":null,"properties":{"OBJECTID":245,"LAT":38.068800000000003,"LONG":-97.932199999999995,"Name":"MEDICINE SHOPPE","Address":"1401 NORTH MAIN","City":"HUTCHINSON","State":"KS","Zip":675014003,"formated_phone":"620-663-7681","Status":"open","Icon":"small_green","Type":"Pharmacy"}},{"type":"Feature","id":246,"geometry":null,"properties":{"OBJECTID":246,"LAT":37.554774700000003,"LONG":-97.244500000000002,"Name":"DERBY DRUG","Address":"1101 N ROCK RD","City":"DERBY","State":"KS","Zip":670373735,"formated_phone":"316-788-6669","Status":"open","Icon":"small_green","Type":"Pharmacy"}},{"type":"Feature","id":247,"geometry":null,"properties":{"OBJECTID":247,"LAT":39.014467000000003,"LONG":-95.727429999999998,"Name":"WALGREENS #2846","Address":"2915 SW GAGE","City":"TOPEKA","State":"KS","Zip":66614,"formated_phone":"785-271-9924","Status":"open","Icon":"small_green","Type":"Pharmacy"}},{"type":"Feature","id":248,"geometry":null,"properties":{"OBJECTID":248,"LAT":38.500100000000003,"LONG":-94.941599999999994,"Name":"AUTEN PHARMACY","Address":"125 E Main St","City":"OSAWATOMIE","State":"KS","Zip":660641343,"formated_phone":"913-755-4111","Status":"open","Icon":"small_green","Type":"Pharmacy"}},{"type":"Feature","id":249,"geometry":null,"properties":{"OBJECTID":249,"LAT":37.558599999999998,"LONG":-97.244399999999999,"Name":"DILLON PHARMACY","Address":"1624 N Rock Rd","City":"DERBY","State":"KS","Zip":67037,"formated_phone":"316-554-2121","Status":"open","Icon":"small_green","Type":"Pharmacy"}},{"type":"Feature","id":250,"geometry":null,"properties":{"OBJECTID":250,"LAT":38.205333000000003,"LONG":-97.517503000000005,"Name":"MOUNDRIDGE PHARMACY","Address":"200 E PACK","City":"MOUNDRIDGE","State":"KS","Zip":67107,"formated_phone":"620-345-8650","Status":"open","Icon":"small_green","Type":"Pharmacy"}},{"type":"Feature","id":251,"geometry":null,"properties":{"OBJECTID":251,"LAT":39.088107999999998,"LONG":-95.666038999999998,"Name":"WALGREENS #15601","Address":"2101 NW TOPEKA AVE","City":"TOPEKA","State":"KS","Zip":66608,"formated_phone":"785-232-2591","Status":"open","Icon":"small_green","Type":"Pharmacy"}},{"type":"Feature","id":252,"geometry":null,"properties":{"OBJECTID":252,"LAT":37.433408900000003,"LONG":-94.704904900000002,"Name":"26368","Address":"2710 N BROADWAY","City":"PITTSBURG","State":"KS","Zip":66762,"formated_phone":"620-231-0756","Status":"open","Icon":"small_green","Type":"Pharmacy"}},{"type":"Feature","id":253,"geometry":null,"properties":{"OBJECTID":253,"LAT":38.9895073,"LONG":-94.700309860000004,"Name":"WAL-MART PHARMACY 10-1691","Address":"7701 FRONTAGE ROAD","City":"OVERLAND PARK","State":"KS","Zip":66204,"formated_phone":"913-648-5335","Status":"open","Icon":"small_green","Type":"Pharmacy"}},{"type":"Feature","id":254,"geometry":null,"properties":{"OBJECTID":254,"LAT":39.128500000000003,"LONG":-94.715299999999999,"Name":"DEGOLER PHARMACY","Address":"8101 Parallel Pkwy","City":"KANSAS CITY","State":"KS","Zip":661121655,"formated_phone":"913-299-9000","Status":"open","Icon":"small_green","Type":"Pharmacy"}},{"type":"Feature","id":255,"geometry":null,"properties":{"OBJECTID":255,"LAT":39.019126900000003,"LONG":-94.662220000000005,"Name":"HY VEE PHARMACY","Address":"1736789","City":"MISSION","State":"KS","Zip":66202,"formated_phone":"913-831-4477","Status":"open","Icon":"small_green","Type":"Pharmacy"}},{"type":"Feature","id":256,"geometry":null,"properties":{"OBJECTID":256,"LAT":37.005958530000001,"LONG":-94.739351650000003,"Name":"WAL-MART PHARMACY 10-0208","Address":"2970 MILITARY AVENUE","City":"BAXTER SPRINGS","State":"KS","Zip":66713,"formated_phone":"620-856-5196","Status":"open","Icon":"small_green","Type":"Pharmacy"}},{"type":"Feature","id":257,"geometry":null,"properties":{"OBJECTID":257,"LAT":39.853099999999998,"LONG":-95.535848979999997,"Name":"TICE HEALTHMART","Address":"618 OREGON ST","City":"HIAWATHA","State":"KS","Zip":664342299,"formated_phone":"785-742-2191","Status":"open","Icon":"small_green","Type":"Pharmacy"}},{"type":"Feature","id":258,"geometry":null,"properties":{"OBJECTID":258,"LAT":37.815007999999999,"LONG":-96.8914829,"Name":"WAL-MART PHARMACY 10-0186","Address":"301 SO. VILLAGE ROAD","City":"EL DORADO","State":"KS","Zip":67042,"formated_phone":"316-322-8901","Status":"open","Icon":"small_green","Type":"Pharmacy"}},{"type":"Feature","id":259,"geometry":null,"properties":{"OBJECTID":259,"LAT":37.011200000000002,"LONG":-95.942499999999995,"Name":"CANEY DRUG","Address":"208 W 4TH AVE","City":"CANEY","State":"KS","Zip":673331462,"formated_phone":"620-879-5822","Status":"open","Icon":"small_green","Type":"Pharmacy"}},{"type":"Feature","id":260,"geometry":null,"properties":{"OBJECTID":260,"LAT":38.883400000000002,"LONG":-94.802049999999994,"Name":"CVS PHARMACY","Address":"1075 W Santa Fe St","City":"OLATHE","State":"KS","Zip":66061,"formated_phone":"913-764-5858","Status":"open","Icon":"small_green","Type":"Pharmacy"}},{"type":"Feature","id":261,"geometry":null,"properties":{"OBJECTID":261,"LAT":37.572694769999998,"LONG":-95.243689489999994,"Name":"RICHEYS REXALL DRUG","Address":"511 N. Main Street","City":"ERIE","State":"KS","Zip":667331332,"formated_phone":"620-244-3661","Status":"open","Icon":"small_green","Type":"Pharmacy"}},{"type":"Feature","id":262,"geometry":null,"properties":{"OBJECTID":262,"LAT":38.883605899999999,"LONG":-94.780603200000002,"Name":"PRICE CHOPPER","Address":"2101 E SANTA FE","City":"OLATHE","State":"KS","Zip":66062,"formated_phone":"913-782-2323","Status":"open","Icon":"small_green","Type":"Pharmacy"}},{"type":"Feature","id":263,"geometry":null,"properties":{"OBJECTID":263,"LAT":37.340299999999999,"LONG":-95.266125000000002,"Name":"AUBURN PHARMACY","Address":"2020 Main St","City":"PARSONS","State":"KS","Zip":67357,"formated_phone":"620-421-2360","Status":"open","Icon":"small_green","Type":"Pharmacy"}},{"type":"Feature","id":264,"geometry":null,"properties":{"OBJECTID":264,"LAT":39.044750999999998,"LONG":-95.696252000000001,"Name":"DILLON PHARMACY","Address":"1400 HUNTOON","City":"TOPEKA","State":"KS","Zip":66604,"formated_phone":"785-235-6289","Status":"open","Icon":"small_green","Type":"Pharmacy"}},{"type":"Feature","id":265,"geometry":null,"properties":{"OBJECTID":265,"LAT":38.349299999999999,"LONG":-97.204499999999996,"Name":"RAYS PHARMACY","Address":"414 Main St","City":"QUINTER","State":"KS","Zip":677529998,"formated_phone":"785-754-3312","Status":"open","Icon":"small_green","Type":"Pharmacy"}},{"type":"Feature","id":266,"geometry":null,"properties":{"OBJECTID":266,"LAT":38.971299999999999,"LONG":-95.279941410000006,"Name":"WALGREENS #3055","Address":"3421 W 6TH ST","City":"LAWRENCE","State":"KS","Zip":66049,"formated_phone":"785-841-5400","Status":"open","Icon":"small_green","Type":"Pharmacy"}},{"type":"Feature","id":267,"geometry":null,"properties":{"OBJECTID":267,"LAT":38.942799999999998,"LONG":-95.239400000000003,"Name":"WALGREENS #3056","Address":"400 WEST 23RD ST","City":"LAWRENCE","State":"KS","Zip":66046,"formated_phone":"785-832-8188","Status":"open","Icon":"small_green","Type":"Pharmacy"}},{"type":"Feature","id":268,"geometry":null,"properties":{"OBJECTID":268,"LAT":37.244405100000002,"LONG":-96.971299999999999,"Name":"Health Center Pharmacy","Address":"722 WHEAT ROAD","City":"WINFIELD","State":"KS","Zip":67156,"formated_phone":"620-221-7850","Status":"open","Icon":"small_green","Type":"Pharmacy"}},{"type":"Feature","id":269,"geometry":null,"properties":{"OBJECTID":269,"LAT":37.664499999999997,"LONG":-97.272451020000005,"Name":"WALGREENS #5768","Address":"5505 E HARRY ST","City":"WICHITA","State":"KS","Zip":67218,"formated_phone":"316-685-6361","Status":"open","Icon":"small_green","Type":"Pharmacy"}},{"type":"Feature","id":270,"geometry":null,"properties":{"OBJECTID":270,"LAT":37.6937,"LONG":-97.297475000000006,"Name":"WALGREENS #5769","Address":"3333 E CENTRAL AVE","City":"WICHITA","State":"KS","Zip":67208,"formated_phone":"316-682-1108","Status":"open","Icon":"small_green","Type":"Pharmacy"}},{"type":"Feature","id":271,"geometry":null,"properties":{"OBJECTID":271,"LAT":37.707906000000001,"LONG":-97.261536000000007,"Name":"WALGREENS #6361","Address":"1330 N WOODLAWN ST","City":"WICHITA","State":"KS","Zip":67208,"formated_phone":"316-618-0816","Status":"open","Icon":"small_green","Type":"Pharmacy"}},{"type":"Feature","id":272,"geometry":null,"properties":{"OBJECTID":272,"LAT":39.184100000000001,"LONG":-96.557802039999999,"Name":"DILLON PHARMACY","Address":"130 SARBER LANE","City":"MANHATTAN","State":"KS","Zip":66502,"formated_phone":"785-776-0060","Status":"open","Icon":"small_green","Type":"Pharmacy"}},{"type":"Feature","id":273,"geometry":null,"properties":{"OBJECTID":273,"LAT":39.179200000000002,"LONG":-96.562773300000003,"Name":"Paul's Pharmacy","Address":"461 E Poyntz Ave","City":"MANHATTAN","State":"KS","Zip":66502,"formated_phone":"785-539-1717","Status":"open","Icon":"small_green","Type":"Pharmacy"}},{"type":"Feature","id":274,"geometry":null,"properties":{"OBJECTID":274,"LAT":37.722900000000003,"LONG":-97.36977143,"Name":"THE MEDICINE SHOPPE","Address":"2315 W 21ST ST SUITE 117","City":"WICHITA","State":"KS","Zip":67203,"formated_phone":"316-838-2100","Status":"open","Icon":"small_green","Type":"Pharmacy"}},{"type":"Feature","id":275,"geometry":null,"properties":{"OBJECTID":275,"LAT":39.128599999999999,"LONG":-94.767852629999993,"Name":"HEN HOUSE","Address":"8120 PARALLEL PARKWAY","City":"KANSAS CITY","State":"KS","Zip":66112,"formated_phone":"913-334-1660","Status":"open","Icon":"small_green","Type":"Pharmacy"}},{"type":"Feature","id":276,"geometry":null,"properties":{"OBJECTID":276,"LAT":38.912799999999997,"LONG":-94.880499999999998,"Name":"PRICE CHOPPER PHARMACY","Address":"7418 W 119TH ST","City":"OVERLAND PARK","State":"KS","Zip":662131110,"formated_phone":"913-338-2707","Status":"open","Icon":"small_green","Type":"Pharmacy"}},{"type":"Feature","id":277,"geometry":null,"properties":{"OBJECTID":277,"LAT":38.977899999999998,"LONG":-94.686400000000006,"Name":"PRICE CHOPPER PHARMACY","Address":"8686 ANTIOCH RD","City":"OVERLAND PARK","State":"KS","Zip":662123648,"formated_phone":"913-642-4140","Status":"open","Icon":"small_green","Type":"Pharmacy"}},{"type":"Feature","id":278,"geometry":null,"properties":{"OBJECTID":278,"LAT":37.695537999999999,"LONG":-97.388964999999999,"Name":"WALGREENS #5793","Address":"710 N WEST ST","City":"WICHITA","State":"KS","Zip":67203,"formated_phone":"316-946-5546","Status":"open","Icon":"small_green","Type":"Pharmacy"}},{"type":"Feature","id":279,"geometry":null,"properties":{"OBJECTID":279,"LAT":38.482519199999999,"LONG":-100.9070949,"Name":"SCOTT CITY PHARMACY","Address":"102 ALBERT AVE","City":"SCOTT CITY","State":"KS","Zip":67871,"formated_phone":"620-872-2146","Status":"open","Icon":"small_green","Type":"Pharmacy"}},{"type":"Feature","id":280,"geometry":null,"properties":{"OBJECTID":280,"LAT":37.691499999999998,"LONG":-97.345100000000002,"Name":"BARNEYS PHARMACY INC","Address":"3108 W CENTRAL","City":"WICHITA","State":"KS","Zip":67203,"formated_phone":"316-945-3388","Status":"open","Icon":"small_green","Type":"Pharmacy"}},{"type":"Feature","id":281,"geometry":null,"properties":{"OBJECTID":281,"LAT":39.847551600000003,"LONG":-95.561570500000002,"Name":"WAL-MART PHARMACY 10-0342","Address":"701 HOPI DRIVE","City":"HIAWATHA","State":"KS","Zip":66434,"formated_phone":"785-742-4213","Status":"open","Icon":"small_green","Type":"Pharmacy"}},{"type":"Feature","id":282,"geometry":null,"properties":{"OBJECTID":282,"LAT":38.912799999999997,"LONG":-94.880499999999998,"Name":"STARK PROFESSIONAL PHARMACY","Address":"5701 WEST 119TH STREET","City":"OVERLAND PARK","State":"KS","Zip":662093722,"formated_phone":"913-345-3800","Status":"open","Icon":"small_green","Type":"Pharmacy"}},{"type":"Feature","id":283,"geometry":null,"properties":{"OBJECTID":283,"LAT":38.689,"LONG":-94.845500000000001,"Name":"WAL-MART PHARMACY 10-0242","Address":"310 HEDGE LANE","City":"PAOLA","State":"KS","Zip":66071,"formated_phone":"913-294-5777","Status":"open","Icon":"small_green","Type":"Pharmacy"}},{"type":"Feature","id":284,"geometry":null,"properties":{"OBJECTID":284,"LAT":39.021700000000003,"LONG":-96.824963030000006,"Name":"52300","Address":"521 EAST CHESTNUT ST","City":"JUNCTION CITY","State":"KS","Zip":66441,"formated_phone":"785-238-1118","Status":"open","Icon":"small_green","Type":"Pharmacy"}},{"type":"Feature","id":285,"geometry":null,"properties":{"OBJECTID":285,"LAT":38.94155756,"LONG":-95.279932090000003,"Name":"Jayhawk Pharmacy","Address":"3510 CLINTON PKWY PL","City":"LAWRENCE","State":"KS","Zip":660472145,"formated_phone":"785-843-0111","Status":"open","Icon":"small_green","Type":"Pharmacy"}},{"type":"Feature","id":286,"geometry":null,"properties":{"OBJECTID":286,"LAT":37.825151200000001,"LONG":-96.847853499999999,"Name":"DILLON PHARMACY","Address":"700 N MAIN","City":"EL DORADO","State":"KS","Zip":67042,"formated_phone":"316-321-0318","Status":"open","Icon":"small_green","Type":"Pharmacy"}},{"type":"Feature","id":287,"geometry":null,"properties":{"OBJECTID":287,"LAT":38.993299999999998,"LONG":-94.666647650000002,"Name":"PRICE CHOPPER","Address":"7000 W 75TH STREET","City":"OVERLAND PARK","State":"KS","Zip":66204,"formated_phone":"913-432-3396","Status":"open","Icon":"small_green","Type":"Pharmacy"}},{"type":"Feature","id":288,"geometry":null,"properties":{"OBJECTID":288,"LAT":38.942900000000002,"LONG":-95.281278950000001,"Name":"HY VEE PHARMACY 1","Address":"3504 CLINTON PARKWAY","City":"LAWRENCE","State":"KS","Zip":66047,"formated_phone":"785-832-0110","Status":"open","Icon":"small_green","Type":"Pharmacy"}},{"type":"Feature","id":289,"geometry":null,"properties":{"OBJECTID":289,"LAT":37.692424799999998,"LONG":-97.246350800000002,"Name":"DILLON PHARMACY","Address":"7707 E CENTRAL","City":"WICHITA","State":"KS","Zip":67206,"formated_phone":"316-651-2703","Status":"open","Icon":"small_green","Type":"Pharmacy"}},{"type":"Feature","id":290,"geometry":null,"properties":{"OBJECTID":290,"LAT":39.000799999999998,"LONG":-95.692899999999995,"Name":"84441","Address":"1301 SW 37TH STREET","City":"TOPEKA","State":"KS","Zip":66611,"formated_phone":"785-267-6900","Status":"open","Icon":"small_green","Type":"Pharmacy"}},{"type":"Feature","id":291,"geometry":null,"properties":{"OBJECTID":291,"LAT":39.903399299999997,"LONG":-95.803813199999993,"Name":"SABETHA FAMILY PHARMACY","Address":"1118 MAIN","City":"SABETHA","State":"KS","Zip":665341810,"formated_phone":"785-284-3432","Status":"open","Icon":"small_green","Type":"Pharmacy"}},{"type":"Feature","id":292,"geometry":null,"properties":{"OBJECTID":292,"LAT":38.848208489999998,"LONG":-98.589725650000005,"Name":"GREGWIRE DRUG STORE","Address":"714 N MAIN ST","City":"RUSSELL","State":"KS","Zip":676651991,"formated_phone":"785-483-3301","Status":"open","Icon":"small_green","Type":"Pharmacy"}},{"type":"Feature","id":293,"geometry":null,"properties":{"OBJECTID":293,"LAT":38.142400000000002,"LONG":-94.815440820000006,"Name":"AUBURN PHRM","Address":"625 MAIN ST","City":"MOUND CITY","State":"KS","Zip":66056,"formated_phone":"913-795-4435","Status":"open","Icon":"small_green","Type":"Pharmacy"}},{"type":"Feature","id":294,"geometry":null,"properties":{"OBJECTID":294,"LAT":37.225920299999999,"LONG":-96.993877299999994,"Name":"DILLON PHARMACY","Address":"2310 MAIN","City":"WINFIELD","State":"KS","Zip":67156,"formated_phone":"620-221-5710","Status":"open","Icon":"small_green","Type":"Pharmacy"}},{"type":"Feature","id":295,"geometry":null,"properties":{"OBJECTID":295,"LAT":38.206400000000002,"LONG":-95.734200000000001,"Name":"PRESCRIPTION CENTRE","Address":"312 CROSS ST","City":"BURLINGTON","State":"KS","Zip":668390208,"formated_phone":"620-364-5523","Status":"open","Icon":"small_green","Type":"Pharmacy"}},{"type":"Feature","id":296,"geometry":null,"properties":{"OBJECTID":296,"LAT":39.5518,"LONG":-97.657899999999998,"Name":"WAL-MART PHARMACY 10-1282","Address":"140 E COLLEGE DRIVE","City":"CONCORDIA","State":"KS","Zip":66901,"formated_phone":"785-243-2807","Status":"open","Icon":"small_green","Type":"Pharmacy"}},{"type":"Feature","id":297,"geometry":null,"properties":{"OBJECTID":297,"LAT":37.647995799999997,"LONG":-97.332675699999996,"Name":"WAL-MART PHARMACY 10-1099","Address":"501 EAST PAWNEE","City":"WICHITA","State":"KS","Zip":67211,"formated_phone":"316-267-4230","Status":"open","Icon":"small_green","Type":"Pharmacy"}},{"type":"Feature","id":298,"geometry":null,"properties":{"OBJECTID":298,"LAT":38.854599999999998,"LONG":-94.759236360000003,"Name":"HY VEE PHARMACY 1","Address":"14955 W 151st St","City":"OLATHE","State":"KS","Zip":66062,"formated_phone":"913-780-9449","Status":"open","Icon":"small_green","Type":"Pharmacy"}},{"type":"Feature","id":299,"geometry":null,"properties":{"OBJECTID":299,"LAT":37.691000000000003,"LONG":-97.462999999999994,"Name":"WALGREENS #6170","Address":"555 N MAIZE ROAD","City":"WICHITA","State":"KS","Zip":67212,"formated_phone":"316-729-6099","Status":"open","Icon":"small_green","Type":"Pharmacy"}},{"type":"Feature","id":300,"geometry":null,"properties":{"OBJECTID":300,"LAT":37.664900000000003,"LONG":-97.227907689999995,"Name":"DILLON PHARMACY","Address":"9450 E HARRY","City":"WICHITA","State":"KS","Zip":67207,"formated_phone":"316-651-2732","Status":"open","Icon":"small_green","Type":"Pharmacy"}},{"type":"Feature","id":301,"geometry":null,"properties":{"OBJECTID":301,"LAT":39.015039360000003,"LONG":-94.743016370000007,"Name":"HY VEE PHARMACY 1","Address":"13550 W 63RD STREET","City":"SHAWNEE","State":"KS","Zip":66216,"formated_phone":"913-962-2256","Status":"open","Icon":"small_green","Type":"Pharmacy"}},{"type":"Feature","id":302,"geometry":null,"properties":{"OBJECTID":302,"LAT":38.92628182,"LONG":-95.260599999999997,"Name":"TARGET PHARMACY","Address":"3201 IOWA STREET","City":"LAWRENCE","State":"KS","Zip":66046,"formated_phone":"785-832-0312","Status":"open","Icon":"small_green","Type":"Pharmacy"}},{"type":"Feature","id":303,"geometry":null,"properties":{"OBJECTID":303,"LAT":38.023450789999998,"LONG":-97.336799999999997,"Name":"192919","Address":"1701 S KANSAS AVE","City":"NEWTON","State":"KS","Zip":67114,"formated_phone":"316-284-2333","Status":"open","Icon":"small_green","Type":"Pharmacy"}},{"type":"Feature","id":304,"geometry":null,"properties":{"OBJECTID":304,"LAT":38.854399999999998,"LONG":-94.668945829999998,"Name":"PRICE CHOPPER PHARMACY","Address":"7201 W 151ST ST","City":"Overland Park","State":"KS","Zip":66223,"formated_phone":"913-897-0023","Status":"open","Icon":"small_green","Type":"Pharmacy"}},{"type":"Feature","id":305,"geometry":null,"properties":{"OBJECTID":305,"LAT":38.883899999999997,"LONG":-94.68902688,"Name":"HY VEE PHARMACY 2","Address":"8900 W 135TH STREET","City":"OVERLAND PARK","State":"KS","Zip":66221,"formated_phone":"913-685-3299","Status":"open","Icon":"small_green","Type":"Pharmacy"}},{"type":"Feature","id":306,"geometry":null,"properties":{"OBJECTID":306,"LAT":39.374195200000003,"LONG":-101.05321979999999,"Name":"DILLON PHARMACY","Address":"1605 S RANGE RD","City":"COLBY","State":"KS","Zip":67701,"formated_phone":"785-462-1310","Status":"open","Icon":"small_green","Type":"Pharmacy"}},{"type":"Feature","id":307,"geometry":null,"properties":{"OBJECTID":307,"LAT":37.835341100000001,"LONG":-96.292796300000006,"Name":"EUREKA PHARMACY","Address":"1602 N ELM","City":"EUREKA","State":"KS","Zip":67045,"formated_phone":"620-583-5488","Status":"open","Icon":"small_green","Type":"Pharmacy"}},{"type":"Feature","id":308,"geometry":null,"properties":{"OBJECTID":308,"LAT":38.412300500000001,"LONG":-96.198634499999997,"Name":"MEDICINE SHOPPE","Address":"1509 W 12TH ST","City":"EMPORIA","State":"KS","Zip":66801,"formated_phone":"620-342-1242","Status":"open","Icon":"small_green","Type":"Pharmacy"}},{"type":"Feature","id":309,"geometry":null,"properties":{"OBJECTID":309,"LAT":37.723768999999997,"LONG":-97.461072000000001,"Name":"DILLON PHARMACY","Address":"10222 W 21ST","City":"WICHITA","State":"KS","Zip":67205,"formated_phone":"316-792-1535","Status":"open","Icon":"small_green","Type":"Pharmacy"}},{"type":"Feature","id":310,"geometry":null,"properties":{"OBJECTID":310,"LAT":38.984200000000001,"LONG":-94.669146940000005,"Name":"THE MEDICINE SHOPPE","Address":"7222 WEST 80TH STREET","City":"OVERLAND PARK","State":"KS","Zip":66204,"formated_phone":"913-341-7244","Status":"open","Icon":"small_green","Type":"Pharmacy"}},{"type":"Feature","id":311,"geometry":null,"properties":{"OBJECTID":311,"LAT":39.035190700000001,"LONG":-94.640000000000001,"Name":"215564","Address":"5150 ROE AVENUE","City":"ROELAND PARK","State":"KS","Zip":66205,"formated_phone":"913-236-8778","Status":"open","Icon":"small_green","Type":"Pharmacy"}},{"type":"Feature","id":312,"geometry":null,"properties":{"OBJECTID":312,"LAT":38.481395800000001,"LONG":-101.36101290000001,"Name":"WICHITA COUNTY PHARMACY","Address":"111 W BROADWAY","City":"LEOTI","State":"KS","Zip":67861,"formated_phone":"620-375-2323","Status":"open","Icon":"small_green","Type":"Pharmacy"}},{"type":"Feature","id":313,"geometry":null,"properties":{"OBJECTID":313,"LAT":38.345100000000002,"LONG":-94.754255560000004,"Name":"SILVER CREEK PHARMACY AND GIFTS","Address":"945 Market St","City":"LA CYGNE","State":"KS","Zip":66040,"formated_phone":"913-757-4744","Status":"open","Icon":"small_green","Type":"Pharmacy"}},{"type":"Feature","id":314,"geometry":null,"properties":{"OBJECTID":314,"LAT":38.937740599999998,"LONG":-94.726960300000002,"Name":"PERRY DRUG INC","Address":"12200 W 106TH STE 140","City":"OVERLAND PARK","State":"KS","Zip":66215,"formated_phone":"913-541-5700","Status":"open","Icon":"small_green","Type":"Pharmacy"}},{"type":"Feature","id":315,"geometry":null,"properties":{"OBJECTID":315,"LAT":38.883699999999997,"LONG":-94.677800000000005,"Name":"AuBurn Pharmacy","Address":"11700 W 135TH ST","City":"OVERLAND PARK","State":"KS","Zip":662219395,"formated_phone":"913-685-0308","Status":"open","Icon":"small_green","Type":"Pharmacy"}},{"type":"Feature","id":316,"geometry":null,"properties":{"OBJECTID":316,"LAT":39.756775509999997,"LONG":-99.324600000000004,"Name":"WITMER DRUG STORE INC","Address":"779 3RD ST","City":"PHILLIPSBURG","State":"KS","Zip":67661,"formated_phone":"785-543-2032","Status":"open","Icon":"small_green","Type":"Pharmacy"}},{"type":"Feature","id":317,"geometry":null,"properties":{"OBJECTID":317,"LAT":39.015587439999997,"LONG":-95.779300000000006,"Name":"JAYHAWK PHARMACY AND PATIENT SUPPLY","Address":"2860 SW MISSION WOODS DR","City":"TOPEKA","State":"KS","Zip":66614,"formated_phone":"785-228-9700","Status":"open","Icon":"small_green","Type":"Pharmacy"}},{"type":"Feature","id":318,"geometry":null,"properties":{"OBJECTID":318,"LAT":37.340558100000003,"LONG":-95.274156700000006,"Name":"PARSONS FAMILY PHARMACY","Address":"2517 MAIN","City":"PARSONS","State":"KS","Zip":67357,"formated_phone":"620-421-2020","Status":"open","Icon":"small_green","Type":"Pharmacy"}},{"type":"Feature","id":319,"geometry":null,"properties":{"OBJECTID":319,"LAT":38.981000000000002,"LONG":-94.630300000000005,"Name":"CVS PHARMACY","Address":"8200 Mission Rd","City":"PRAIRIE VILLAGE","State":"KS","Zip":66208,"formated_phone":"913-381-3300","Status":"open","Icon":"small_green","Type":"Pharmacy"}},{"type":"Feature","id":320,"geometry":null,"properties":{"OBJECTID":320,"LAT":38.200595919999998,"LONG":-95.738699999999994,"Name":"MEDICINE SHOPPE","Address":"716 NORTH 4TH STREET","City":"BURLINGTON","State":"KS","Zip":66839,"formated_phone":"620-364-3388","Status":"open","Icon":"small_green","Type":"Pharmacy"}},